COD_TIPO_DATO;TIPO_DATO;IDENTIFICADOR_MINT;COD_AREA;COD_NDP;DIRECCION_COMPLETA;DIRECCION AUXILIAR;COD_VIAL;CLASE_VIAL;PARTICULAR_VIAL;NOMBRE_VIAL;TIPO_N＝ERO;N＝ERO;COD_BARRIO;BARRIO;COD_DISTRITO;DISTRITO;UTMX;UTMY;LONGITUD;LATITUD;FECHA_INSTALACION_O_SUSTITUCION;MODELO;
5001;PAPELERA_EXP;504757;;20004152;AVENIDA DE LA GRAN VIA DE SAN FRANCISCO N.19;AVENIDA DE LA GRAN VIA DE SAN FRANCISCO,19;669050;AVENIDA;DE LA;GRAN VIA DE SAN FRANCISCO;N;19;11;PALACIO;1;CENTRO;439424,8287;4473496,159;-3.71393;40.40988;16/07/2010;50_LTS_EX;
5001;PAPELERA_EXP;516240;;20147367;AVENIDA DE LA GRAN VIA DE SAN FRANCISCO N.6;AVENIDA DE LA GRAN VIA DE SAN FRANCISCO,6;669050;AVENIDA;DE LA;GRAN VIA DE SAN FRANCISCO;N;6;11;PALACIO;1;CENTRO;439530,2964;4473316,587;-3.71267;40.40827;21/02/2011;50_LTS_EX;
5001;PAPELERA_EXP;514556;;20103618;CALLE DE BAILEN N.4;CALLE DE BAILEN,17;88200;CALLE;DE;BAILEN;N;4;11;PALACIO;1;CENTRO;439515,209;4474496,711;-3.71296;40.4189;19/01/2011;50_LTS_EX;
5001;PAPELERA_EXP;514554;;20103594;CALLE DE BAILEN N.17;CALLE DE BAILEN,17;88200;CALLE;DE;BAILEN;N;17;11;PALACIO;1;CENTRO;439507,4995;4474382,436;-3.71304;40.41787;19/01/2011;50_LTS_EX;
5001;PAPELERA_EXP;521696;;11000007;CALLE DE BAILEN N.19;CALLE DE BAILEN,19;88200;CALLE;DE;BAILEN;N;19;11;PALACIO;1;CENTRO;439479,8976;4474116,242;-3.71334;40.41547;31/08/2011;50_LTS_EX;
5001;PAPELERA_EXP;518483;;11001006;CALLE DE BAILEN N.27;CALLE DE BAILEN,31;88200;CALLE;DE;BAILEN;N;27;11;PALACIO;1;CENTRO;439439,0327;4473889,008;-3.7138;40.41342;04/03/2011;50_LTS_EX;
5001;PAPELERA_EXP;519079;;31009290;CALLE DE BEATRIZ GALINDO N.6;CALLE DE BEATRIZ GALINDO,6;98100;CALLE;DE;BEATRIZ GALINDO;N;6;11;PALACIO;1;CENTRO;439245,5289;4473778,457;-3.71607;40.41241;04/04/2011;50_LTS_EX;
5001;PAPELERA_EXP;501701;;11000228;CALLE DE ISABEL LA CATOLICA N.1;CALLE DE ISABEL LA CATOLICA,1;377300;CALLE;DE;ISABEL LA CATOLICA;N;1;11;PALACIO;1;CENTRO;439852,6949;4474684,927;-3.709;40.42062;12/07/2010;50_LTS_EX;
5001;PAPELERA_EXP;501710;;31037446;CALLE DE LA ENCARNACION N.5;CALLE DE LA ENCARNACION,5;265295;CALLE;DE LA;ENCARNACION;N;5;11;PALACIO;1;CENTRO;439599,0212;4474684,747;-3.71199;40.4206;12/07/2010;50_LTS_EX;
5001;PAPELERA_EXP;515078;;11000365;CALLE DE LA INDEPENDENCIA N.4;CALLE DE LA INDEPENDENCIA,4;372600;CALLE;DE LA;INDEPENDENCIA;N;4;11;PALACIO;1;CENTRO;439768,7297;4474371,452;-3.70996;40.41779;28/01/2011;50_LTS_EX;
5001;PAPELERA_EXP;516243;;11001129;CALLE DE LA VENTOSA N.19;CALLE DE LA VENTOSA,17;775100;CALLE;DE LA;VENTOSA;N;19;11;PALACIO;1;CENTRO;439441,7833;4473283,999;-3.71371;40.40797;21/02/2011;50_LTS_EX;
5001;PAPELERA_EXP;504257;;11000893;CALLE DE LAS TABERNILLAS N.19;CALLE DE LAS TABERNILLAS,19;731700;CALLE;DE LAS;TABERNILLAS;N;19;11;PALACIO;1;CENTRO;439628,1521;4473561,123;-3.71154;40.41048;15/07/2010;50_LTS_EX;
5001;PAPELERA_EXP;514523;;31037234;CALLE DEL DOCTOR CARRACIDO N.1;CALLE DE LEGANITOS,28;240500;CALLE;DEL;DOCTOR CARRACIDO;N;1;11;PALACIO;1;CENTRO;439717,8696;4474904,694;-3.71061;40.42259;18/01/2011;50_LTS_EX;
5001;PAPELERA_EXP;514557;;11000296;PLAZA DE ORIENTE N.8;CALLE DE PAVIA,2;551300;PLAZA;DE;ORIENTE;N;8;11;PALACIO;1;CENTRO;439622,0677;4474491,409;-3.7117;40.41886;19/01/2011;50_LTS_EX;
5001;PAPELERA_EXP;514382;;31037261;CALLE DE REQUENA N.7;CALLE DE REQUENA,7;637400;CALLE;DE;REQUENA;N;7;11;PALACIO;1;CENTRO;439505,328;4474323,62;-3.71306;40.41734;04/01/2011;50_LTS_EX;
5001;PAPELERA_EXP;516310;;11000156;CALLE  GRAN VIA N.51;CALLE DE SAN BERNARDO,11;342950;CALLE;;GRAN VIA;N;51;11;PALACIO;1;CENTRO;439941,5544;4474763,03;-3.70796;40.42133;21/02/2011;50_LTS_EX;
5001;PAPELERA_EXP;516281;;11000068;CALLE DE SAN QUINTIN N.4;CALLE DE SAN QUINTIN,4;683200;CALLE;DE;SAN QUINTIN;N;4;11;PALACIO;1;CENTRO;439592,0541;4474557,145;-3.71206;40.41945;21/02/2011;50_LTS_EX;
5001;PAPELERA_EXP;516294;;11000337;CALLE DEL CONDE DE LEMOS N.8;CALLE DE SANTIAGO,11;205800;CALLE;DEL;CONDE DE LEMOS;N;8;11;PALACIO;1;CENTRO;439703,1813;4474238,771;-3.71072;40.41659;21/02/2011;50_LTS_EX;
5001;PAPELERA_EXP;504567;;31028017;CALLE DE SEGOVIA N.23;CALLE DE SEGOVIA,23;706300;CALLE;DE;SEGOVIA;N;23;11;PALACIO;1;CENTRO;439417,4576;4473949,126;-3.71406;40.41396;16/07/2010;50_LTS_EX;
5001;PAPELERA_EXP;516227;;31033460;CALLE DE SEGOVIA N.27;CALLE DE SEGOVIA,27;706300;CALLE;DE;SEGOVIA;N;27;11;PALACIO;1;CENTRO;439353,6906;4473932,991;-3.71481;40.41381;21/02/2011;50_LTS_EX;
5001;PAPELERA_EXP;516264;;31033463;CALLE DE SEGOVIA N.28;CALLE DE SEGOVIA,28;706300;CALLE;DE;SEGOVIA;N;28;11;PALACIO;1;CENTRO;439313,976;4473953,293;-3.71528;40.41399;21/02/2011;50_LTS_EX;
5001;PAPELERA_EXP;514377;;11008008;CALLE DE SEGOVIA N.67;CALLE DE SEGOVIA,67;706300;CALLE;DE;SEGOVIA;N;67;11;PALACIO;1;CENTRO;438949,2051;4473962,915;-3.71958;40.41405;04/01/2011;50_LTS_EX;
5001;PAPELERA_EXP;503895;;20007178;CALLE DE SEGOVIA N.75;CALLE DE SEGOVIA,75;706300;CALLE;DE;SEGOVIA;N;75;11;PALACIO;1;CENTRO;438845,8144;4473978,188;-3.7208;40.41418;15/07/2010;50_LTS_EX;
5001;PAPELERA_EXP;512426;;11001440;CALLE DE TOLEDO N.75;CALLE DE TOLEDO,77;743600;CALLE;DE;TOLEDO;N;75;11;PALACIO;1;CENTRO;439837,8589;4473576,089;-3.70907;40.41063;05/11/2010;50_LTS_EX;
5001;PAPELERA_EXP;516218;;11001243;CALLE DE TOLEDO N.86;CALLE DE TOLEDO,86;743600;CALLE;DE;TOLEDO;N;86;11;PALACIO;1;CENTRO;439706,2755;4473357,353;-3.7106;40.40865;21/02/2011;50_LTS_EX;
5001;PAPELERA_EXP;501707;;11000148;CALLE DE TORIJA N.10;CALLE DE TORIJA,10;746800;CALLE;DE;TORIJA;N;10;11;PALACIO;1;CENTRO;439751,92;4474707,938;-3.71019;40.42082;12/07/2010;50_LTS_EX;
5001;PAPELERA_EXP;512727;;11000322;CALLE DE VERGARA N.3;CALLE DE VERGARA,3B;776900;CALLE;DE;VERGARA;N;3;11;PALACIO;1;CENTRO;439725,5514;4474382,9;-3.71047;40.41789;12/11/2010;50_LTS_EX;
5001;PAPELERA_EXP;518842;;11000878;CALLE DEL HUMILLADERO N.16;CALLE DEL HUMILLADERO,16;369700;CALLE;DEL;HUMILLADERO;N;16;11;PALACIO;1;CENTRO;439724,7711;4473547,025;-3.7104;40.41036;18/03/2011;50_LTS_EX;
5001;PAPELERA_EXP;504024;;31004012;CALLE DEL ROSARIO N.6;CALLE DEL ROSARIO,19;648900;CALLE;DEL;ROSARIO;N;6;11;PALACIO;1;CENTRO;439353,9918;4473445,668;-3.71476;40.40942;15/07/2010;50_LTS_EX;
5001;PAPELERA_EXP;516237;;31008818;CALLE DEL ROSARIO N.31;CALLE DEL ROSARIO,31;648900;CALLE;DEL;ROSARIO;N;31;11;PALACIO;1;CENTRO;439254,3231;4473397,632;-3.71593;40.40898;21/02/2011;50_LTS_EX;
5001;PAPELERA_EXP;524109;;31037234;CALLE DEL DOCTOR CARRACIDO N.1;CALLE GRAN VIA,69;240500;CALLE;DEL;DOCTOR CARRACIDO;N;1;11;PALACIO;1;CENTRO;439738,4078;4474926,73;-3.71037;40.42279;27/02/2012;50_LTS_EX;
5001;PAPELERA_EXP;516291;;11000039;CALLE  MAYOR N.81;CALLE MAYOR,81;497800;CALLE;;MAYOR;N;81;11;PALACIO;1;CENTRO;439449,041;4474077,639;-3.7137;40.41512;21/02/2011;50_LTS_EX;
5001;PAPELERA_EXP;512431;;20004050;CALLE DE LAS AGUAS N.10;CARRERA DE SAN FRANCISCO,5;8300;CALLE;DE LAS;AGUAS;N;10;11;PALACIO;1;CENTRO;439564,9996;4473621,576;-3.71229;40.41102;05/11/2010;50_LTS_EX;
5001;PAPELERA_EXP;512537;;20003712;COSTANILLA DE LOS ANGELES N.11;COSTANILLA DE LOS ANGELES,9;51600;COSTANILLA;DE LOS;ANGELES;N;11;11;PALACIO;1;CENTRO;439919,2015;4474514,553;-3.7082;40.41909;30/05/2017;50_LTS_EX;
5001;PAPELERA_EXP;516254;;31040116;COSTANILLA DE SAN ANDRES N.1;COSTANILLA DE SAN ANDRES,1;659300;COSTANILLA;DE;SAN ANDRES;N;1;11;PALACIO;1;CENTRO;439621,6881;4473917,507;-3.71165;40.41369;21/02/2011;50_LTS_EX;
5001;PAPELERA_EXP;504279;;31041185;CALLE DE SEGOVIA N.11;COSTANILLA DEL NUNCIO,2;706300;CALLE;DE;SEGOVIA;N;11;11;PALACIO;1;CENTRO;439735,9769;4473885,506;-3.7103;40.41341;15/07/2010;50_LTS_EX;
5001;PAPELERA_EXP;504634;;31041762;CALLE DE BEATRIZ GALINDO N.1;CUESTA DE LOS CIEGOS,2;98100;CALLE;DE;BEATRIZ GALINDO;N;1;11;PALACIO;1;CENTRO;439359,2346;4473884,103;-3.71474;40.41337;16/07/2010;50_LTS_EX;
5001;PAPELERA_EXP;516278;;11052228;CUESTA DE SAN VICENTE N.14;CUESTA DE SAN VICENTE,14;687515;CUESTA;DE;SAN VICENTE;N;14;11;PALACIO;1;CENTRO;439379,4518;4474705,39;-3.71458;40.42077;21/02/2011;50_LTS_EX;
5001;PAPELERA_EXP;516280;;20103576;CUESTA DE SAN VICENTE N.2;CUESTA DE SAN VICENTE,2;687515;CUESTA;DE;SAN VICENTE;N;2;11;PALACIO;1;CENTRO;439487,0961;4474797,766;-3.71332;40.42161;21/02/2011;50_LTS_EX;
5001;PAPELERA_EXP;516286;;20003764;CUESTA DE SANTO DOMINGO N.24;CUESTA DE SANTO DOMINGO,24;702200;CUESTA;DE;SANTO DOMINGO;N;24;11;PALACIO;1;CENTRO;439914,0192;4474608,951;-3.70827;40.41994;21/02/2011;50_LTS_EX;
5001;PAPELERA_EXP;501721;;20003816;CUESTA DE SANTO DOMINGO N.7;CUESTA DE SANTO DOMINGO,7;702200;CUESTA;DE;SANTO DOMINGO;N;7;11;PALACIO;1;CENTRO;439812,9134;4474590,891;-3.70946;40.41977;12/07/2010;50_LTS_EX;
5001;PAPELERA_EXP;516267;;31041784;CUESTA DE LA VEGA N.3;GLORIETA DE AZORIN;771500;CUESTA;DE LA;VEGA;N;3;11;PALACIO;1;CENTRO;439172,1241;4474038,808;-3.71696;40.41475;21/02/2011;50_LTS_EX;
5001;PAPELERA_EXP;502561;;31041783;CUESTA DE LA VEGA N.1;GLORIETA DE BOCCHERINI;771500;CUESTA;DE LA;VEGA;N;1;11;PALACIO;1;CENTRO;439303,5215;4474024,422;-3.71541;40.41463;13/07/2010;50_LTS_EX;
5001;PAPELERA_EXP;503491;;31047537;CALLE DE SEGOVIA N.30;PASEO DE LA CIUDAD DE PLASENCIA;706300;CALLE;DE;SEGOVIA;N;30;11;PALACIO;1;CENTRO;439029,0117;4474073,273;-3.71865;40.41505;14/07/2010;50_LTS_EX;
5001;PAPELERA_EXP;518975;;31002670;PASEO DE LA VIRGEN DEL PUERTO N.3;PASEO DE LA VIRGEN DEL PUERTO,3;795300;PASEO;DE LA;VIRGEN DEL PUERTO;N;3;11;PALACIO;1;CENTRO;438862,2586;4474329,947;-3.72064;40.41735;31/03/2011;50_LTS_EX;
5001;PAPELERA_EXP;503504;;31025998;PASEO  BAJO DE LA VIRGEN DEL PUERTO N.2;PASEO DE LA VIRGEN DEL PUERTO,4;795400;PASEO;;BAJO DE LA VIRGEN DEL PUERTO;N;2;11;PALACIO;1;CENTRO;438875,5952;4474196,629;-3.72047;40.41615;14/07/2010;50_LTS_EX;
5001;PAPELERA_EXP;518977;;31011490;PASEO DE LA VIRGEN DEL PUERTO N.4;PASEO DE LA VIRGEN DEL PUERTO,4;795300;PASEO;DE LA;VIRGEN DEL PUERTO;N;4;11;PALACIO;1;CENTRO;438836,4872;4474186,958;-3.72093;40.41606;31/03/2011;50_LTS_EX;
5001;PAPELERA_EXP;503498;;31044315;PASEO DE LA VIRGEN DEL PUERTO N.3;PASEO DE LA VIRGEN DEL PUERTO,4;795300;PASEO;DE LA;VIRGEN DEL PUERTO;N;3;11;PALACIO;1;CENTRO;438871,8735;4474052,351;-3.7205;40.41485;14/07/2010;50_LTS_EX;
5001;PAPELERA_EXP;518976;;31011490;PASEO DE LA VIRGEN DEL PUERTO N.4;PASEO DE LA VIRGEN DEL PUERTO,4;795300;PASEO;DE LA;VIRGEN DEL PUERTO;N;4;11;PALACIO;1;CENTRO;438841,143;4474133,636;-3.72087;40.41558;31/03/2011;50_LTS_EX;
5001;PAPELERA_EXP;512866;;31041210;CALLE DE SEGOVIA N.81;PASEO DE LA VIRGEN DEL PUERTO,5;706300;CALLE;DE;SEGOVIA;N;81;11;PALACIO;1;CENTRO;438782,9763;4473972,041;-3.72154;40.41412;15/11/2010;50_LTS_EX;
5001;PAPELERA_EXP;502152;;20003646;PLAZA DE ESPA헤 N.2;PLAZA DE ESPA헤,2;273600;PLAZA;DE;ESPA헤;N;2;11;PALACIO;1;CENTRO;439667,3544;4474952,833;-3.71121;40.42302;13/07/2010;50_LTS_EX;
5001;PAPELERA_EXP;502134;;11000016;PLAZA DE ESPA헤 N.8;PLAZA DE ESPA헤,8;273600;PLAZA;DE;ESPA헤;N;8;11;PALACIO;1;CENTRO;439541,9356;4474865,038;-3.71268;40.42222;13/07/2010;50_LTS_EX;
5001;PAPELERA_EXP;514378;;11001052;PLAZA DE GABRIEL MIRO N.2;PLAZA DE GABRIEL MIRO,3;319900;PLAZA;DE;GABRIEL MIRO;N;2;11;PALACIO;1;CENTRO;439357,4436;4473767,56;-3.71475;40.41232;04/01/2011;50_LTS_EX;
5001;PAPELERA_EXP;516232;;11001057;PLAZA DE GABRIEL MIRO N.7;PLAZA DE GABRIEL MIRO,8;319900;PLAZA;DE;GABRIEL MIRO;N;7;11;PALACIO;1;CENTRO;439316,5023;4473741,25;-3.71523;40.41208;21/02/2011;50_LTS_EX;
5001;PAPELERA_EXP;516306;;11000396;PLAZA DE ISABEL II N.1;PLAZA DE ISABEL II,1;378200;PLAZA;DE;ISABEL II;N;1;11;PALACIO;1;CENTRO;439834,1709;4474385,357;-3.70919;40.41792;21/02/2011;50_LTS_EX;
5001;PAPELERA_EXP;514375;;20004018;PLAZA DE LA CEBADA N.1;PLAZA DE LA CEBADA,1;160000;PLAZA;DE LA;CEBADA;N;1;11;PALACIO;1;CENTRO;439872,314;4473640,196;-3.70867;40.41121;04/01/2011;50_LTS_EX;
5001;PAPELERA_EXP;514383;;11000277;PLAZA DE LA ENCARNACION N.2;PLAZA DE LA ENCARNACION,4;265300;PLAZA;DE LA;ENCARNACION;N;2;11;PALACIO;1;CENTRO;439668,6121;4474582,06;-3.71116;40.41968;04/01/2011;50_LTS_EX;
5001;PAPELERA_EXP;518811;;11000697;PLAZA DE LA PAJA N.2;PLAZA DE LA PAJA,3;557650;PLAZA;DE LA;PAJA;N;2;11;PALACIO;1;CENTRO;439628,6894;4473838,636;-3.71156;40.41298;18/03/2011;50_LTS_EX;
5001;PAPELERA_EXP;514519;;20105751;PLAZA DE LA VIRGEN DE LA PALOMA N.4;PLAZA DE LA VIRGEN DE LA PALOMA,4;965;PLAZA;DE LA;VIRGEN DE LA PALOMA;N;4;11;PALACIO;1;CENTRO;439576,9372;4473312,881;-3.71212;40.40824;18/01/2011;50_LTS_EX;
5001;PAPELERA_EXP;514521;;11000945;PLAZA DE LOS CARROS N.3;PLAZA DE LOS CARROS,5;149750;PLAZA;DE LOS;CARROS;N;3;11;PALACIO;1;CENTRO;439639,4775;4473703,121;-3.71142;40.41176;18/01/2011;50_LTS_EX;
5001;PAPELERA_EXP;525483;;11000410;PLAZA DE LOS HERRADORES N.4;PLAZA DE LOS HERRADORES,10;361200;PLAZA;DE LOS;HERRADORES;N;4;11;PALACIO;1;CENTRO;439876,5303;4474221,074;-3.708675;40.416443;12/11/2013;50_LTS_EX;
5001;PAPELERA_EXP;514553;;11000349;PLAZA DE ORIENTE N.1;PLAZA DE ORIENTE,1;551300;PLAZA;DE;ORIENTE;N;1;11;PALACIO;1;CENTRO;439610,9663;4474377,162;-3.71182;40.41783;19/01/2011;50_LTS_EX;
5001;PAPELERA_EXP;525536;;31041318;PLAZA DE RAMALES N.4;PLAZA DE RAMALES,5;627900;PLAZA;DE;RAMALES;N;4;11;PALACIO;1;CENTRO;439617,0202;4474286,087;-3.71174;40.41701;24/04/2017;50_LTS_EX;
5001;PAPELERA_EXP;516235;;11001067;PLAZA DE SAN FRANCISCO N.5;PLAZA DE SAN FRANCISCO,5;669100;PLAZA;DE;SAN FRANCISCO;N;5;11;PALACIO;1;CENTRO;439409,6134;4473608,399;-3.71412;40.41089;21/02/2011;50_LTS_EX;
5001;PAPELERA_EXP;514380;;20003878;PLAZA DE SAN MIGUEL N.2;PLAZA DE SAN MIGUEL,2;679700;PLAZA;DE;SAN MIGUEL;N;2;11;PALACIO;1;CENTRO;439826,0941;4474119,006;-3.70926;40.41552;04/01/2011;50_LTS_EX;
5001;PAPELERA_EXP;514379;;11000529;PLAZA DEL CONDE DE BARAJAS N.5;PLAZA DEL CONDE DE BARAJAS,5;204500;PLAZA;DEL;CONDE DE BARAJAS;N;5;11;PALACIO;1;CENTRO;439867,6244;4474007,666;-3.70876;40.41452;04/01/2011;50_LTS_EX;
5001;PAPELERA_EXP;512429;;11000684;CALLE DE LA CAVA BAJA N.42;PLAZA DEL HUMILLADERO,1;158700;CALLE;DE LA;CAVA BAJA;N;42;11;PALACIO;1;CENTRO;439714,008;4473685,87;-3.71054;40.41161;05/11/2010;50_LTS_EX;
5001;PAPELERA_EXP;516225;;11001094;RONDA DE SEGOVIA N.17;RONDA DE SEGOVIA,17;706400;RONDA;DE;SEGOVIA;N;17;11;PALACIO;1;CENTRO;439094,686;4473697,535;-3.71784;40.41167;21/02/2011;50_LTS_EX;
5001;PAPELERA_EXP;516224;;31041624;CUESTA DE LAS DESCARGAS N.5;RONDA DE SEGOVIA,34;235700;CUESTA;DE LAS;DESCARGAS;N;5;11;PALACIO;1;CENTRO;439318,9116;4473304,974;-3.71516;40.40815;21/02/2011;50_LTS_EX;
5001;PAPELERA_EXP;504001;;20064568;RONDA DE SEGOVIA N.73;RONDA DE SEGOVIA,73;706400;RONDA;DE;SEGOVIA;N;73;11;PALACIO;1;CENTRO;439464,2898;4473233,865;-3.71344;40.40752;15/07/2010;50_LTS_EX;
5001;PAPELERA_EXP;512424;;11002047;CALLE DE AMPARO N.24;CALLE DE AMPARO,24;43400;CALLE;DE;AMPARO;N;24;12;EMBAJADORES;1;CENTRO;440305,606;4473495,756;-3.70355;40.40994;05/11/2010;50_LTS_EX;
5001;PAPELERA_EXP;514509;;20004894;CALLE DE ARGUMOSA N.32;CALLE DE ARGUMOSA,32;71000;CALLE;DE;ARGUMOSA;N;32;12;EMBAJADORES;1;CENTRO;440977,6498;4473172,959;-3.6956;40.40708;18/01/2011;50_LTS_EX;
5001;PAPELERA_EXP;515974;;11002968;CALLE DE ARGUMOSA N.35;CALLE DE ARGUMOSA,35;71000;CALLE;DE;ARGUMOSA;N;35;12;EMBAJADORES;1;CENTRO;440876,5191;4473261,45;-3.6968;40.40787;18/02/2011;50_LTS_EX;
5001;PAPELERA_EXP;505449;;11002969;CALLE DE ARGUMOSA N.37;CALLE DE ARGUMOSA,39;71000;CALLE;DE;ARGUMOSA;N;37;12;EMBAJADORES;1;CENTRO;440909,5759;4473256,749;-3.69641;40.40783;19/07/2010;50_LTS_EX;
5001;PAPELERA_EXP;518517;;11003113;CALLE DE ATOCHA N.118;CALLE DE ATOCHA,118;81600;CALLE;DE;ATOCHA;N;118;12;EMBAJADORES;1;CENTRO;441208,6724;4473416,468;-3.6929;40.40929;08/03/2011;50_LTS_EX;
5001;PAPELERA_EXP;506157;;11003164;CALLE DE ATOCHA N.74;CALLE DE ATOCHA,74;81600;CALLE;DE;ATOCHA;N;74;12;EMBAJADORES;1;CENTRO;440817,7143;4473659,317;-3.69753;40.41145;20/07/2010;50_LTS_EX;
5001;PAPELERA_EXP;515960;;11003173;CALLE DE ATOCHA N.94;CALLE DE ATOCHA,94;81600;CALLE;DE;ATOCHA;N;94;12;EMBAJADORES;1;CENTRO;440936,7354;4473580,674;-3.69612;40.41075;18/02/2011;50_LTS_EX;
5001;PAPELERA_EXP;516006;;11001870;CALLE DE EMBAJADORES N.12;CALLE DE EMBAJADORES,14;262000;CALLE;DE;EMBAJADORES;N;12;12;EMBAJADORES;1;CENTRO;440059,6618;4473512,149;-3.70645;40.41007;18/02/2011;50_LTS_EX;
5001;PAPELERA_EXP;524557;;11001985;CALLE DE EMBAJADORES N.17;CALLE DE EMBAJADORES,17;262000;CALLE;DE;EMBAJADORES;N;17;12;EMBAJADORES;1;CENTRO;440128,5281;4473422,794;-3.70563;40.40927;13/09/2012;50_LTS_EX;
5001;PAPELERA_EXP;518481;;11002157;CALLE DE EMBAJADORES N.27;CALLE DE EMBAJADORES,27;262000;CALLE;DE;EMBAJADORES;N;27;12;EMBAJADORES;1;CENTRO;440168,8571;4473372,519;-3.70515;40.40882;04/03/2011;50_LTS_EX;
5001;PAPELERA_EXP;516002;;11002122;CALLE DE EMBAJADORES N.39;CALLE DE EMBAJADORES,39;262000;CALLE;DE;EMBAJADORES;N;39;12;EMBAJADORES;1;CENTRO;440254,5193;4473260,829;-3.70413;40.40782;18/02/2011;50_LTS_EX;
5001;PAPELERA_EXP;512726;;11002228;CALLE DE EMBAJADORES N.47;CALLE DE EMBAJADORES,47;262000;CALLE;DE;EMBAJADORES;N;47;12;EMBAJADORES;1;CENTRO;440285,1275;4473161,79;-3.70376;40.40693;12/11/2010;50_LTS_EX;
5001;PAPELERA_EXP;515951;;20004392;CALLE DE JUANELO N.6;CALLE DE JUANELO,6;420500;CALLE;DE;JUANELO;N;6;12;EMBAJADORES;1;CENTRO;440171,955;4473654,451;-3.70514;40.41136;18/02/2011;50_LTS_EX;
5001;PAPELERA_EXP;514518;;20004170;CALLE DE LA ARGANZUELA N.1;CALLE DE LA ARGANZUELA,1;69900;CALLE;DE LA;ARGANZUELA;N;1;12;EMBAJADORES;1;CENTRO;439735,3118;4473380,431;-3.71026;40.40886;18/01/2011;50_LTS_EX;
5001;PAPELERA_EXP;504126;;31009300;CALLE DE LA ARGANZUELA N.35;CALLE DE LA ARGANZUELA,35;69900;CALLE;DE LA;ARGANZUELA;N;35;12;EMBAJADORES;1;CENTRO;439836,0028;4473133,188;-3.70905;40.40664;15/07/2010;50_LTS_EX;
5001;PAPELERA_EXP;505044;;11001480;CALLE DE LA COLEGIATA N.19;CALLE DE LA COLEGIATA,19;174800;CALLE;DE LA;COLEGIATA;N;19;12;EMBAJADORES;1;CENTRO;439992,9113;4473865,684;-3.70727;40.41325;16/07/2010;50_LTS_EX;
5001;PAPELERA_EXP;515932;;11001541;CALLE DE LA CONCEPCION JERONIMA N.1;CALLE DE LA CONCEPCION JERONIMA,1;203100;CALLE;DE LA;CONCEPCION JERONIMA;N;1;12;EMBAJADORES;1;CENTRO;440268,6369;4473967,829;-3.70403;40.41419;18/02/2011;50_LTS_EX;
5001;PAPELERA_EXP;515946;;11002519;CALLE DE LA MAGDALENA N.2;CALLE DE LA MAGDALENA,2;455200;CALLE;DE LA;MAGDALENA;N;2;12;EMBAJADORES;1;CENTRO;440343,4146;4473768,531;-3.70313;40.4124;18/02/2011;50_LTS_EX;
5001;PAPELERA_EXP;516010;;11001890;CALLE DE LA RIBERA DE CURTIDORES N.1;CALLE DE LA RIBERA DE CURTIDORES,1;639680;CALLE;DE LA;RIBERA DE CURTIDORES;N;1;12;EMBAJADORES;1;CENTRO;439993,2317;4473481,598;-3.70723;40.40979;18/02/2011;50_LTS_EX;
5001;PAPELERA_EXP;516011;;20004472;CALLE DE LA RIBERA DE CURTIDORES N.14;CALLE DE LA RIBERA DE CURTIDORES,29;639680;CALLE;DE LA;RIBERA DE CURTIDORES;N;14;12;EMBAJADORES;1;CENTRO;439986,4708;4473272,96;-3.70729;40.40791;18/02/2011;50_LTS_EX;
5001;PAPELERA_EXP;504950;;11001887;CALLE DE LA RIBERA DE CURTIDORES N.6;CALLE DE LA RIBERA DE CURTIDORES,6;639680;CALLE;DE LA;RIBERA DE CURTIDORES;N;6;12;EMBAJADORES;1;CENTRO;439978,9363;4473391,798;-3.70739;40.40898;16/07/2010;50_LTS_EX;
5001;PAPELERA_EXP;505521;;11003021;CALLE DE ARGUMOSA N.18;CALLE DE LA SOMBRERERIA,24;71000;CALLE;DE;ARGUMOSA;N;18;12;EMBAJADORES;1;CENTRO;440751,019;4473272,431;-3.69828;40.40796;19/07/2010;50_LTS_EX;
5001;PAPELERA_EXP;527527;;20004312;CALLE DE ATOCHA N.30;CALLE DE LOS CA헬ZARES,2;81600;CALLE;DE;ATOCHA;N;30;12;EMBAJADORES;1;CENTRO;440482,5313;4473870,662;-3.7015;40.41333;06/11/2015;50_LTS_EX;
5001;PAPELERA_EXP;512865;;11002473;CALLE DE LAVAPIES N.19;CALLE DE LOS MINISTRILES CHICA,2;432200;CALLE;DE;LAVAPIES;N;19;12;EMBAJADORES;1;CENTRO;440390,2056;4473570,568;-3.70256;40.41062;15/11/2010;50_LTS_EX;
5001;PAPELERA_EXP;512418;;11001625;CALLE DE LUIS VELEZ DE GUEVARA N.20;CALLE DE LUIS VELEZ DE GUEVARA,20;448500;CALLE;DE;LUIS VELEZ DE GUEVARA;N;20;12;EMBAJADORES;1;CENTRO;440396,9022;4473772,546;-3.7025;40.41244;05/11/2010;50_LTS_EX;
5001;PAPELERA_EXP;505315;;20004598;CALLE DE MIGUEL SERVET N.1;CALLE DE MIGUEL SERVET,1;507700;CALLE;DE;MIGUEL SERVET;N;1;12;EMBAJADORES;1;CENTRO;440561,4855;4473233,969;-3.70051;40.4076;19/07/2010;50_LTS_EX;
5001;PAPELERA_EXP;514511;;11002326;CALLE DE MIGUEL SERVET N.11;CALLE DE MIGUEL SERVET,11;507700;CALLE;DE;MIGUEL SERVET;N;11;12;EMBAJADORES;1;CENTRO;440498,7693;4473136,781;-3.70124;40.40672;18/01/2011;50_LTS_EX;
5001;PAPELERA_EXP;504893;;20103678;CALLE DE MIRA EL SOL N.21;CALLE DE MIRA EL SOL,21;510100;CALLE;DE;MIRA EL SOL;N;21;12;EMBAJADORES;1;CENTRO;439998,3104;4473161,859;-3.70714;40.40691;16/07/2010;50_LTS_EX;
5001;PAPELERA_EXP;515948;;20004662;CALLE DE LAVAPIES N.27;CALLE DE SAN CARLOS,1;432200;CALLE;DE;LAVAPIES;N;27;12;EMBAJADORES;1;CENTRO;440398,4168;4473536,09;-3.70246;40.41031;18/02/2011;50_LTS_EX;
5001;PAPELERA_EXP;515962;;11003136;CALLE DEL DOCTOR MATA N.2;CALLE DE SANCHEZ BUSTILLO,1;243500;CALLE;DEL;DOCTOR MATA;N;2;12;EMBAJADORES;1;CENTRO;441099,104;4473402,897;-3.69419;40.40916;18/02/2011;50_LTS_EX;
5001;PAPELERA_EXP;506113;;11002560;CALLE DE SANTA ISABEL N.10;CALLE DE SANTA ISABEL,10;695900;CALLE;DE;SANTA ISABEL;N;10;12;EMBAJADORES;1;CENTRO;440648,3997;4473708,388;-3.69953;40.41188;20/07/2010;50_LTS_EX;
5001;PAPELERA_EXP;506138;;11002909;CALLE DE SANTA ISABEL N.40;CALLE DE SANTA ISABEL,40;695900;CALLE;DE;SANTA ISABEL;N;40;12;EMBAJADORES;1;CENTRO;440806,4988;4473528,418;-3.69765;40.41027;20/07/2010;50_LTS_EX;
5001;PAPELERA_EXP;515993;;20004958;CALLE DEL MARQUES DE TOCA N.14;CALLE DE SANTA ISABEL,45;487100;CALLE;DEL;MARQUES DE TOCA;N;14;12;EMBAJADORES;1;CENTRO;440912,9346;4473467,635;-3.69639;40.40973;18/02/2011;50_LTS_EX;
5001;PAPELERA_EXP;524629;;31009391;CALLE DE SANTA ISABEL N.48;CALLE DE SANTA ISABEL,48B;695900;CALLE;DE;SANTA ISABEL;N;48;12;EMBAJADORES;1;CENTRO;440955,9451;4473433,994;-3.69588;40.40943;19/10/2012;50_LTS_EX;
5001;PAPELERA_EXP;516217;;11001362;CALLE DE TOLEDO N.101;CALLE DE TOLEDO,101;743600;CALLE;DE;TOLEDO;N;101;12;EMBAJADORES;1;CENTRO;439762,8202;4473424,612;-3.70994;40.40926;21/02/2011;50_LTS_EX;
5001;PAPELERA_EXP;515937;;11001479;CALLE DE TOLEDO N.41;CALLE DE TOLEDO,41;743600;CALLE;DE;TOLEDO;N;41;12;EMBAJADORES;1;CENTRO;439962,5138;4473778,232;-3.70762;40.41246;18/02/2011;50_LTS_EX;
5001;PAPELERA_EXP;515959;;11002777;CALLE DEL AVE MARIA N.23;CALLE DEL AVE MARIA,23;83000;CALLE;DEL;AVE MARIA;N;23;12;EMBAJADORES;1;CENTRO;440546,3421;4473571,548;-3.70072;40.41064;18/02/2011;50_LTS_EX;
5001;PAPELERA_EXP;516212;;31009298;CALLE DEL CAPITAN SALAZAR MARTINEZ N.2;CALLE DEL CAPITAN SALAZAR MARTINEZ,2;137600;CALLE;DEL;CAPITAN SALAZAR MARTINEZ;N;2;12;EMBAJADORES;1;CENTRO;439749,3183;4473222,689;-3.71008;40.40744;21/02/2011;50_LTS_EX;
5001;PAPELERA_EXP;516016;;11002264;CALLE DEL CASINO N.5;CALLE DEL CASINO,16;152400;CALLE;DEL;CASINO;N;5;12;EMBAJADORES;1;CENTRO;440146,5532;4473129,593;-3.70539;40.40663;18/02/2011;50_LTS_EX;
5001;PAPELERA_EXP;514374;;11001487;CALLE DE LA COLEGIATA N.1;CALLE DEL CONDE DE ROMANONES,18;174800;CALLE;DE LA;COLEGIATA;N;1;12;EMBAJADORES;1;CENTRO;440177,2158;4473782,066;-3.70509;40.41251;04/01/2011;50_LTS_EX;
5001;PAPELERA_EXP;515987;;20004886;CALLE DEL DOCTOR FOURQUET N.20;CALLE DEL DOCTOR FOURQUET,23;241900;CALLE;DEL;DOCTOR FOURQUET;N;20;12;EMBAJADORES;1;CENTRO;440792,1488;4473215,493;-3.69779;40.40745;18/02/2011;50_LTS_EX;
5001;PAPELERA_EXP;505387;;31029092;CALLE DEL DOCTOR FOURQUET N.41;CALLE DEL DOCTOR FOURQUET,34;241900;CALLE;DEL;DOCTOR FOURQUET;N;41;12;EMBAJADORES;1;CENTRO;440619,3648;4473149,145;-3.69982;40.40684;19/07/2010;50_LTS_EX;
5001;PAPELERA_EXP;515935;;20147605;CALLE DEL DUQUE DE ALBA N.2;CALLE DEL DUQUE DE ALBA,2;253000;CALLE;DEL;DUQUE DE ALBA;N;2;12;EMBAJADORES;1;CENTRO;440136,9222;4473730,215;-3.70556;40.41204;18/02/2011;50_LTS_EX;
5001;PAPELERA_EXP;515941;;11001536;CALLE DEL DUQUE DE RIVAS N.5;CALLE DEL DUQUE DE RIVAS,5;254000;CALLE;DEL;DUQUE DE RIVAS;N;5;12;EMBAJADORES;1;CENTRO;440070,8968;4473856,18;-3.70635;40.41317;18/02/2011;50_LTS_EX;
5001;PAPELERA_EXP;515954;;11002085;CALLE DEL MESON DE PAREDES N.35;CALLE DEL MESON DE PAREDES,37;505000;CALLE;DEL;MESON DE PAREDES;N;35;12;EMBAJADORES;1;CENTRO;440274,875;4473472,69;-3.70391;40.40973;18/02/2011;50_LTS_EX;
5001;PAPELERA_EXP;512415;;11002096;CALLE DEL MESON DE PAREDES N.61;CALLE DEL MESON DE PAREDES,61;505000;CALLE;DEL;MESON DE PAREDES;N;61;12;EMBAJADORES;1;CENTRO;440339,7763;4473311,214;-3.70313;40.40828;05/11/2010;50_LTS_EX;
5001;PAPELERA_EXP;524604;;20004700;CALLE DE LA CABEZA N.25;CALLE DEL OLIVAR,4;120800;CALLE;DE LA;CABEZA;N;25;12;EMBAJADORES;1;CENTRO;440461,8362;4473722,078;-3.70173;40.41199;08/10/2012;50_LTS_EX;
5001;PAPELERA_EXP;515990;;11002864;CALLE DEL SALITRE N.48;CALLE DEL SALITRE,48;655850;CALLE;DEL;SALITRE;N;48;12;EMBAJADORES;1;CENTRO;440633,4809;4473324,424;-3.69967;40.40842;18/02/2011;50_LTS_EX;
5001;PAPELERA_EXP;512422;;11002276;GLORIETA DE EMBAJADORES N.10;GLORIETA DE EMBAJADORES,10;262100;GLORIETA;DE;EMBAJADORES;N;10;12;EMBAJADORES;1;CENTRO;440352,6746;4473012,504;-3.70295;40.40559;05/11/2010;50_LTS_EX;
5001;PAPELERA_EXP;516030;;20105763;GLORIETA DE LA PUERTA DE TOLEDO N.1;GLORIETA DE LA PUERTA DE TOLEDO,1;615000;GLORIETA;DE LA;PUERTA DE TOLEDO;N;1;12;EMBAJADORES;1;CENTRO;439662,3325;4473168,995;-3.7111;40.40695;18/02/2011;50_LTS_EX;
5001;PAPELERA_EXP;512425;;11001753;PLAZA DE CASCORRO N.3;PLAZA DE CASCORRO,3;152000;PLAZA;DE;CASCORRO;N;3;12;EMBAJADORES;1;CENTRO;439995,0661;4473604,801;-3.70722;40.4109;05/11/2010;50_LTS_EX;
5001;PAPELERA_EXP;512417;;11001575;PLAZA DE TIRSO DE MOLINA N.17;PLAZA DE TIRSO DE MOLINA,18;742900;PLAZA;DE;TIRSO DE MOLINA;N;17;12;EMBAJADORES;1;CENTRO;440259,418;4473769,2;-3.70412;40.4124;05/11/2010;50_LTS_EX;
5001;PAPELERA_EXP;516024;;11001949;PLAZA DEL CAMPILLO DEL MUNDO NUEVO N.2;PLAZA DEL CAMPILLO DEL MUNDO NUEVO,2;129000;PLAZA;DEL;CAMPILLO DEL MUNDO NUEVO;N;2;12;EMBAJADORES;1;CENTRO;439904,0091;4473148,183;-3.70825;40.40678;18/02/2011;50_LTS_EX;
5001;PAPELERA_EXP;516018;;31035660;PLAZA DEL CAMPILLO DEL MUNDO NUEVO N.3;PLAZA DEL CAMPILLO DEL MUNDO NUEVO,3B;129000;PLAZA;DEL;CAMPILLO DEL MUNDO NUEVO;N;3;12;EMBAJADORES;1;CENTRO;439870,3917;4473082,959;-3.70864;40.40619;18/02/2011;50_LTS_EX;
5001;PAPELERA_EXP;515965;;11003119;PLAZA DEL EMPERADOR CARLOS V N.8;PLAZA DEL EMPERADOR CARLOS V,8;264800;PLAZA;DEL;EMPERADOR CARLOS V;N;8;12;EMBAJADORES;1;CENTRO;441201,8104;4473298,855;-3.69297;40.40823;18/02/2011;50_LTS_EX;
5001;PAPELERA_EXP;514373;;11001444;PLAZA DEL GENERAL VARA DE REY N.11;PLAZA DEL GENERAL VARA DE REY,11;333800;PLAZA;DEL;GENERAL VARA DE REY;N;11;12;EMBAJADORES;1;CENTRO;439890,2183;4473439,131;-3.70844;40.4094;11/11/2016;50_LTS_EX;
5001;PAPELERA_EXP;514371;;20004736;PLAZA DE LAVAPIES N.1;PLAZA DEL LAVAPIES,1;432300;PLAZA;DE;LAVAPIES;N;1;12;EMBAJADORES;1;CENTRO;440501,6257;4473389,852;-3.70123;40.409;04/01/2011;50_LTS_EX;
5001;PAPELERA_EXP;515956;;11002855;PLAZA DE LAVAPIES N.6;PLAZA DEL LAVAPIES,8;432300;PLAZA;DE;LAVAPIES;N;6;12;EMBAJADORES;1;CENTRO;440515,7419;4473350,888;-3.70106;40.40865;18/02/2011;50_LTS_EX;
5001;PAPELERA_EXP;514510;;11003055;RONDA DE ATOCHA N.24;RONDA DE ATOCHA,24;81650;RONDA;DE;ATOCHA;N;24;12;EMBAJADORES;1;CENTRO;440761,5128;4473096,958;-3.69814;40.40638;18/01/2011;50_LTS_EX;
5001;PAPELERA_EXP;515968;;31026028;RONDA DE ATOCHA N.36;RONDA DE ATOCHA,36;81650;RONDA;DE;ATOCHA;N;36;12;EMBAJADORES;1;CENTRO;440656,8455;4473060,044;-3.69937;40.40604;18/02/2011;50_LTS_EX;
5001;PAPELERA_EXP;514372;;20150618;RONDA DE TOLEDO N.9;RONDA DE TOLEDO,32;743800;RONDA;DE;TOLEDO;N;9;12;EMBAJADORES;1;CENTRO;440167,6672;4473010,647;-3.70513;40.40556;04/01/2011;50_LTS_EX;
5001;PAPELERA_EXP;504829;;20103682;RONDA DE TOLEDO N.5;RONDA DE TOLEDO,5;743800;RONDA;DE;TOLEDO;N;5;12;EMBAJADORES;1;CENTRO;439988,1506;4473058,704;-3.70725;40.40598;16/07/2010;50_LTS_EX;
5001;PAPELERA_EXP;514512;;11002313;RONDA DE VALENCIA N.8;RONDA DE VALENCIA,8;765800;RONDA;DE;VALENCIA;N;8;12;EMBAJADORES;1;CENTRO;440542,8257;4473020,985;-3.70071;40.40568;18/01/2011;50_LTS_EX;
5001;PAPELERA_EXP;516623;;11004158;CALLE DE ALCALA N.39;CALLE DE ALCALA,41;18900;CALLE;DE;ALCALA;N;39;13;CORTES;1;CENTRO;440863,1264;4474468,195;-3.69707;40.41874;22/02/2011;50_LTS_EX;
5001;PAPELERA_EXP;515924;;11003268;CALLE DE ATOCHA N.107;CALLE DE ATOCHA,107;81600;CALLE;DE;ATOCHA;N;107;13;CORTES;1;CENTRO;441013,7629;4473556,756;-3.69521;40.41054;18/02/2011;50_LTS_EX;
5001;PAPELERA_EXP;515928;;11003143;CALLE DE ATOCHA N.58;CALLE DE ATOCHA,73;81600;CALLE;DE;ATOCHA;N;58;13;CORTES;1;CENTRO;440714,8689;4473744,494;-3.69875;40.41221;18/02/2011;50_LTS_EX;
5001;PAPELERA_EXP;515926;;11003260;CALLE DE ATOCHA N.89;CALLE DE ATOCHA,89;81600;CALLE;DE;ATOCHA;N;89;13;CORTES;1;CENTRO;440885,39;4473633,252;-3.69673;40.41122;18/02/2011;50_LTS_EX;
5001;PAPELERA_EXP;516635;;11004035;CALLE DE CEDACEROS N.3;CALLE DE CEDACEROS,3;160400;CALLE;DE;CEDACEROS;N;3;13;CORTES;1;CENTRO;440746,8005;4474349,227;-3.69843;40.41766;22/02/2011;50_LTS_EX;
5001;PAPELERA_EXP;506271;;11004038;CALLE DE CEDACEROS N.9;CALLE DE CEDACEROS,9;160400;CALLE;DE;CEDACEROS;N;9;13;CORTES;1;CENTRO;440753,07;4474283,684;-3.69835;40.41707;20/07/2010;50_LTS_EX;
5001;PAPELERA_EXP;516888;;11003957;PLAZA DE CANOVAS DEL CASTILLO N.4;CALLE DE CERVANTES,46;133900;PLAZA;DE;CANOVAS DEL CASTILLO;N;4;13;CORTES;1;CENTRO;441048,1479;4474044,914;-3.69485;40.41494;23/02/2011;50_LTS_EX;
5001;PAPELERA_EXP;512864;;31041444;CALLE DE LA ALAMEDA N.15;CALLE DE LA ALAMEDA,22;12800;CALLE;DE LA;ALAMEDA;N;15;13;CORTES;1;CENTRO;441133,5022;4473569,136;-3.6938;40.41066;15/11/2010;50_LTS_EX;
5001;PAPELERA_EXP;526280;;20005318;CALLE DE LA VIRGEN DE LOS PELIGROS N.14;CALLE DE LA VIRGEN DE LOS PELIGROS,14;794800;CALLE;DE LA;VIRGEN DE LOS PELIGROS;N;14;13;CORTES;1;CENTRO;440645,3765;4474505,438;-3.69964;40.41906;23/10/2014;50_LTS_EX;
5001;PAPELERA_EXP;525928;;11003640;CALLE DE LAS HUERTAS N.32;CALLE DE LAS HUERTAS,32;369000;CALLE;DE LAS;HUERTAS;N;32;13;CORTES;1;CENTRO;440758,3966;4473884,018;-3.69825;40.41347;24/04/2014;50_LTS_EX;
5001;PAPELERA_EXP;515071;;20005026;CALLE DE LAS HUERTAS N.70;CALLE DE LAS HUERTAS,70;369000;CALLE;DE LAS;HUERTAS;N;70;13;CORTES;1;CENTRO;440987,9647;4473836,695;-3.69554;40.41306;28/01/2011;50_LTS_EX;
5001;PAPELERA_EXP;516636;;11004067;CALLE DE LOS MADRAZO N.21;CALLE DE LOS MADRAZO,28;451300;CALLE;DE;LOS MADRAZO;N;21;13;CORTES;1;CENTRO;440953,8236;4474349,814;-3.69599;40.41768;22/02/2011;50_LTS_EX;
5001;PAPELERA_EXP;515073;;11003253;CALLE DE MORATIN N.30;CALLE DE MORATIN,32;522300;CALLE;DE;MORATIN;N;30;13;CORTES;1;CENTRO;440966,2905;4473778,032;-3.69579;40.41253;28/01/2011;50_LTS_EX;
5001;PAPELERA_EXP;516867;;20005098;CALLE DE LOPE DE VEGA N.23;CALLE DE SAN AGUSTIN,18;441000;CALLE;DE;LOPE DE VEGA;N;23;13;CORTES;1;CENTRO;440862,9819;4473912,054;-3.69702;40.41373;23/02/2011;50_LTS_EX;
5001;PAPELERA_EXP;527690;;11003969;PLAZA DE LAS CORTES N.9;CALLE DE SAN AGUSTIN,2;216100;PLAZA;DE LAS;CORTES;N;9;13;CORTES;1;CENTRO;440872,9193;4474096,247;-3.69692;40.41539;26/02/2016;50_LTS_EX;
5001;PAPELERA_EXP;515074;;11003439;CALLE DE SAN PEDRO N.14;CALLE DE SAN PEDRO,14;682300;CALLE;DE;SAN PEDRO;N;14;13;CORTES;1;CENTRO;441049,7022;4473703,002;-3.6948;40.41186;28/01/2011;50_LTS_EX;
5001;PAPELERA_EXP;516626;;11004178;CALLE DEL CABALLERO DE GRACIA N.38;CALLE DEL CABALLERO DE GRACIA,40;120100;CALLE;DEL;CABALLERO DE GRACIA;N;38;13;CORTES;1;CENTRO;440813,2916;4474496,34;-3.69766;40.41899;22/02/2011;50_LTS_EX;
5001;PAPELERA_EXP;515921;;11003358;CALLE DEL GOBERNADOR N.32;CALLE DEL GOBERNADOR,39;338100;CALLE;DEL;GOBERNADOR;N;32;13;CORTES;1;CENTRO;441165,5488;4473652,139;-3.69343;40.41141;18/02/2011;50_LTS_EX;
5001;PAPELERA_EXP;514612;;20005184;CALLE DEL PRADO N.18;CALLE DEL LEON,1;606800;CALLE;DEL;PRADO;N;18;13;CORTES;1;CENTRO;440739,2887;4474042,908;-3.69849;40.4149;20/01/2011;50_LTS_EX;
5001;PAPELERA_EXP;506266;;11004015;CALLE DE ALCALA N.46;CALLE DEL MARQUES DE CUBAS,1;18900;CALLE;DE;ALCALA;N;46;13;CORTES;1;CENTRO;440967,3448;4474450,723;-3.69584;40.41859;20/07/2010;50_LTS_EX;
5001;PAPELERA_EXP;519886;;20005296;CALLE DEL MARQUES DE CUBAS N.19;CALLE DEL MARQUES DE CUBAS,17;484600;CALLE;DEL;MARQUES DE CUBAS;N;19;13;CORTES;1;CENTRO;440995,474;4474251,8;-3.69549;40.4168;28/04/2011;50_LTS_EX;
5001;PAPELERA_EXP;514611;;20005170;CALLE DEL PRADO N.4;CALLE DEL PRADO,4;606800;CALLE;DEL;PRADO;N;4;13;CORTES;1;CENTRO;440626,1501;4474006,061;-3.69982;40.41456;20/01/2011;50_LTS_EX;
5001;PAPELERA_EXP;514505;;11003636;CALLE DE LAS HUERTAS N.16;CALLE DEL PRINCIPE,28;369000;CALLE;DE LAS;HUERTAS;N;16;13;CORTES;1;CENTRO;440595,0793;4473939,703;-3.70018;40.41396;18/01/2011;50_LTS_EX;
5001;PAPELERA_EXP;516886;;11003956;PLAZA DE CANOVAS DEL CASTILLO N.3;PASEO DEL PRADO,10;133900;PLAZA;DE;CANOVAS DEL CASTILLO;N;3;13;CORTES;1;CENTRO;441116,6431;4474015,514;-3.69404;40.41468;23/02/2011;50_LTS_EX;
5001;PAPELERA_EXP;515923;;11003429;PASEO DEL PRADO N.24;PASEO DEL PRADO,26;606900;PASEO;DEL;PRADO;N;24;13;CORTES;1;CENTRO;441194,2967;4473747,379;-3.6931;40.41227;18/02/2011;50_LTS_EX;
5001;PAPELERA_EXP;516882;;11004126;PASEO DEL PRADO N.8;PASEO DEL PRADO,8;606900;PASEO;DEL;PRADO;N;8;13;CORTES;1;CENTRO;441082,8435;4474141,217;-3.69445;40.41581;23/02/2011;50_LTS_EX;
5001;PAPELERA_EXP;516880;;20147781;PASEO DEL PRADO N.2;PLAZA DE CIBELES,2;606900;PASEO;DEL;PRADO;N;2;13;CORTES;1;CENTRO;441168,287;4474433,603;-3.69347;40.41845;23/02/2011;50_LTS_EX;
5001;PAPELERA_EXP;516870;;11003961;CALLE DE CERVANTES N.38;PLAZA DE JESUS,7;168100;CALLE;DE;CERVANTES;N;38;13;CORTES;1;CENTRO;440968,6683;4473972,275;-3.69578;40.41428;23/02/2011;50_LTS_EX;
5001;PAPELERA_EXP;518369;;20005060;PLAZA DE LA PLATERIA DE MARTINEZ N.3;PLAZA DE LA PLATERIA DE MARTINEZ,3;599000;PLAZA;DE LA;PLATERIA DE MARTINEZ;N;3;13;CORTES;1;CENTRO;441179,6428;4473826,309;-3.69328;40.41298;01/03/2011;50_LTS_EX;
5001;PAPELERA_EXP;522224;;20005060;PLAZA DE LA PLATERIA DE MARTINEZ N.3;PLAZA DE LA PLATERIA DE MARTINEZ,3;599000;PLAZA;DE LA;PLATERIA DE MARTINEZ;N;3;13;CORTES;1;CENTRO;441148,942;4473806,568;-3.69364;40.4128;05/11/2011;50_LTS_EX;
5001;PAPELERA_EXP;518365;;20147607;PLAZA DE LAS CORTES N.3;PLAZA DE LAS CORTES,3;216100;PLAZA;DE LAS;CORTES;N;3;13;CORTES;1;CENTRO;440964,9761;4474149,914;-3.69584;40.41588;01/03/2011;50_LTS_EX;
5001;PAPELERA_EXP;514608;;11003713;PLAZA DE SANTA ANA N.12;PLAZA DE SANTA ANA,12;691700;PLAZA;DE;SANTA ANA;N;12;13;CORTES;1;CENTRO;440513,1602;4473988,086;-3.70115;40.41439;20/01/2011;50_LTS_EX;
5001;PAPELERA_EXP;514609;;11003921;CALLE DEL PRINCIPE N.27;PLAZA DE SANTA ANA,6;610200;CALLE;DEL;PRINCIPE;N;27;13;CORTES;1;CENTRO;440582,9158;4474010,844;-3.70033;40.4146;29/12/2016;50_LTS_EX;
5001;PAPELERA_EXP;525339;;11005092;CALLE DE ARGENSOLA N.10;CALLE DE ARGENSOLA,10;70000;CALLE;DE;ARGENSOLA;N;10;14;JUSTICIA;1;CENTRO;441052,8969;4475188,243;-3.6949;40.42524;29/04/2013;50_LTS_EX;
5001;PAPELERA_EXP;514620;;11005238;CALLE DE BARCELO N.11;CALLE DE BARCELO,11;92900;CALLE;DE;BARCELO;N;11;14;JUSTICIA;1;CENTRO;440636,9633;4475371,357;-3.69982;40.42686;20/01/2011;50_LTS_EX;
5001;PAPELERA_EXP;505020;;31035592;CALLE DE BARCELO N.2;CALLE DE BARCELO,4;92900;CALLE;DE;BARCELO;N;2;14;JUSTICIA;1;CENTRO;440606,8341;4475316,092;-3.70017;40.42636;16/07/2010;50_LTS_EX;
5001;PAPELERA_EXP;518482;;31035592;CALLE DE BARCELO N.2;CALLE DE BARCELO,4;92900;CALLE;DE;BARCELO;N;2;14;JUSTICIA;1;CENTRO;440609,0974;4475280,552;-3.70014;40.42604;04/03/2011;50_LTS_EX;
5001;PAPELERA_EXP;526100;;11005236;CALLE DE BARCELO N.7;CALLE DE BARCELO,7;92900;CALLE;DE;BARCELO;N;7;14;JUSTICIA;1;CENTRO;440583,3024;4475344,03;-3.70045;40.42661;10/09/2014;50_LTS_EX;
5001;PAPELERA_EXP;505982;;11005015;CALLE DE BELEN N.15;CALLE DE BELEN,15;99100;CALLE;DE;BELEN;N;15;14;JUSTICIA;1;CENTRO;440993,7533;4475111,004;-3.69559;40.42454;20/07/2010;50_LTS_EX;
5001;PAPELERA_EXP;505987;;20005636;CALLE DE BELEN N.8;CALLE DE BELEN,8;99100;CALLE;DE;BELEN;N;8;14;JUSTICIA;1;CENTRO;440917,0303;4475063,876;-3.69649;40.42411;20/07/2010;50_LTS_EX;
5001;PAPELERA_EXP;505948;;20005662;CALLE DE CAMPOAMOR N.1;CALLE DE CAMPOAMOR,1;129900;CALLE;DE;CAMPOAMOR;N;1;14;JUSTICIA;1;CENTRO;440927,5602;4475215,872;-3.69638;40.42548;20/07/2010;50_LTS_EX;
5001;PAPELERA_EXP;505694;;20005850;CALLE DE CHURRUCA N.29;CALLE DE CHURRUCA,29;231200;CALLE;DE;CHURRUCA;N;29;14;JUSTICIA;1;CENTRO;440509,6302;4475574,399;-3.70134;40.42868;19/07/2010;50_LTS_EX;
5001;PAPELERA_EXP;503431;;11005243;CALLE DE CHURRUCA N.6;CALLE DE CHURRUCA,6;231200;CALLE;DE;CHURRUCA;N;6;14;JUSTICIA;1;CENTRO;440555,8729;4475415,292;-3.70078;40.42725;14/07/2010;50_LTS_EX;
5001;PAPELERA_EXP;516546;;20005852;CALLE DE FUENCARRAL N.110;CALLE DE FUENCARRAL,110;313100;CALLE;DE;FUENCARRAL;N;110;14;JUSTICIA;1;CENTRO;440440,0211;4475568,291;-3.70216;40.42862;22/02/2011;50_LTS_EX;
5001;PAPELERA_EXP;524342;;11004421;CALLE DE FUENCARRAL N.44;CALLE DE FUENCARRAL,46;313100;CALLE;DE;FUENCARRAL;N;44;14;JUSTICIA;1;CENTRO;440562,4694;4474963,443;-3.70066;40.42318;23/05/2012;50_LTS_EX;
5001;PAPELERA_EXP;505841;;11005172;CALLE DE GENOVA N.14;CALLE DE GENOVA,14;334800;CALLE;DE;GENOVA;N;14;14;JUSTICIA;1;CENTRO;441109,3702;4475357,639;-3.69425;40.42677;19/07/2010;50_LTS_EX;
5001;PAPELERA_EXP;512863;;20005776;CALLE DE GENOVA N.2;CALLE DE GENOVA,2;334800;CALLE;DE;GENOVA;N;2;14;JUSTICIA;1;CENTRO;441009,8074;4475426,136;-3.69543;40.42738;15/11/2010;50_LTS_EX;
5001;PAPELERA_EXP;514388;;11004709;PLAZA DE CHUECA N.7;CALLE DE GRAVINA,11;230900;PLAZA;DE;CHUECA;N;7;14;JUSTICIA;1;CENTRO;440835,3901;4474931,312;-3.69744;40.42291;05/01/2011;50_LTS_EX;
5001;PAPELERA_EXP;512624;;20005542;CALLE DE HORTALEZA N.1;CALLE DE HORTALEZA,1;365400;CALLE;DE;HORTALEZA;N;1;14;JUSTICIA;1;CENTRO;440514,8398;4474627,47;-3.70119;40.42015;11/11/2010;50_LTS_EX;
5001;PAPELERA_EXP;516565;;20005666;CALLE DE HORTALEZA N.114;CALLE DE HORTALEZA,114;365400;CALLE;DE;HORTALEZA;N;114;14;JUSTICIA;1;CENTRO;440866,0295;4475266,31;-3.69711;40.42593;22/02/2011;50_LTS_EX;
5001;PAPELERA_EXP;512625;;20005550;CALLE DE HORTALEZA N.45;CALLE DE HORTALEZA,45;365400;CALLE;DE;HORTALEZA;N;45;14;JUSTICIA;1;CENTRO;440669,7924;4474910,419;-3.69939;40.42271;11/11/2010;50_LTS_EX;
5001;PAPELERA_EXP;516592;;11004447;CALLE DE HORTALEZA N.7;CALLE DE HORTALEZA,7;365400;CALLE;DE;HORTALEZA;N;7;14;JUSTICIA;1;CENTRO;440542,4537;4474686,085;-3.70087;40.42068;22/02/2011;50_LTS_EX;
5001;PAPELERA_EXP;516562;;11004962;CALLE DE HORTALEZA N.73;CALLE DE HORTALEZA,73;365400;CALLE;DE;HORTALEZA;N;73;14;JUSTICIA;1;CENTRO;440802,5379;4475175,786;-3.69785;40.42511;22/02/2011;50_LTS_EX;
5001;PAPELERA_EXP;526284;;11004843;CALLE DE HORTALEZA N.80;CALLE DE HORTALEZA,80;365400;CALLE;DE;HORTALEZA;N;80;14;JUSTICIA;1;CENTRO;440731,6527;4475008,726;-3.69867;40.4236;18/09/2013;50_LTS_EX;
5001;PAPELERA_EXP;519843;;11004329;CALLE DE LAS INFANTAS N.20;CALLE DE LAS INFANTAS,24;373600;CALLE;DE LAS;INFANTAS;N;20;14;JUSTICIA;1;CENTRO;440656,1672;4474689,624;-3.69953;40.42072;09/05/2011;50_LTS_EX;
5001;PAPELERA_EXP;516584;;11004301;CALLE DE LAS INFANTAS N.27;CALLE DE LAS INFANTAS,29;373600;CALLE;DE LAS;INFANTAS;N;27;14;JUSTICIA;1;CENTRO;440858,2737;4474605,882;-3.69714;40.41998;22/02/2011;50_LTS_EX;
5001;PAPELERA_EXP;514619;;11005263;CALLE DE MEJIA LEQUERICA N.18;CALLE DE MEJIA LEQUERICA,16;500000;CALLE;DE;MEJIA LEQUERICA;N;18;14;JUSTICIA;1;CENTRO;440696,056;4475441,933;-3.69913;40.4275;20/01/2011;50_LTS_EX;
5001;PAPELERA_EXP;516549;;31037966;CALLE DE MEJIA LEQUERICA N.20;CALLE DE MEJIA LEQUERICA,20;500000;CALLE;DE;MEJIA LEQUERICA;N;20;14;JUSTICIA;1;CENTRO;440682,2681;4475521,967;-3.6993;40.42822;22/02/2011;50_LTS_EX;
5001;PAPELERA_EXP;514392;;11005103;CALLE DEL GENERAL CASTA헲S N.7;CALLE DE ORELLANA,21;329300;CALLE;DEL;GENERAL CASTA헲S;N;7;14;JUSTICIA;1;CENTRO;441173,5369;4475210,607;-3.69348;40.42545;05/01/2011;50_LTS_EX;
5001;PAPELERA_EXP;505950;;11005181;CALLE DE ORELLANA N.8;CALLE DE ORELLANA,8;550400;CALLE;DE;ORELLANA;N;8;14;JUSTICIA;1;CENTRO;441026,8522;4475328,316;-3.69522;40.4265;20/07/2010;50_LTS_EX;
5001;PAPELERA_EXP;516560;;20005576;CALLE DE PELAYO N.13;CALLE DE PELAYO,13;576200;CALLE;DE;PELAYO;N;13;14;JUSTICIA;1;CENTRO;440720,4722;4474882,267;-3.69879;40.42246;22/02/2011;50_LTS_EX;
5001;PAPELERA_EXP;512952;;11004801;CALLE DE PELAYO N.40;CALLE DE PELAYO,40;576200;CALLE;DE;PELAYO;N;40;14;JUSTICIA;1;CENTRO;440786,6086;4474984,98;-3.69802;40.42339;16/11/2010;50_LTS_EX;
5001;PAPELERA_EXP;516547;;11005322;CALLE DE SAGASTA N.10;CALLE DE SAGASTA,10;653500;CALLE;DE;SAGASTA;N;10;14;JUSTICIA;1;CENTRO;440600,1989;4475549,259;-3.70027;40.42846;22/02/2011;50_LTS_EX;
5001;PAPELERA_EXP;505773;;20005810;CALLE DE ANTONIO FLORES N.3;CALLE DE SAGASTA,22;57700;CALLE;DE;ANTONIO FLORES;N;3;14;JUSTICIA;1;CENTRO;440777,9714;4475502,339;-3.69817;40.42805;19/07/2010;50_LTS_EX;
5001;PAPELERA_EXP;516575;;11004836;CALLE DE SAN GREGORIO N.13;CALLE DE SAN GREGORIO,17;670700;CALLE;DE;SAN GREGORIO;N;13;14;JUSTICIA;1;CENTRO;440861,6892;4475038,78;-3.69714;40.42388;22/02/2011;50_LTS_EX;
5001;PAPELERA_EXP;514622;;20005798;CALLE DE SAN MATEO N.23;CALLE DE SAN MATEO,23;678800;CALLE;DE;SAN MATEO;N;23;14;JUSTICIA;1;CENTRO;440798,4477;4475302,365;-3.69791;40.42625;20/01/2011;50_LTS_EX;
5001;PAPELERA_EXP;512630;;11004903;CALLE DE SAN MATEO N.8;CALLE DE SAN MATEO,8;678800;CALLE;DE;SAN MATEO;N;8;14;JUSTICIA;1;CENTRO;440619,3863;4475187,225;-3.70001;40.4252;11/11/2010;50_LTS_EX;
5001;PAPELERA_EXP;516579;;11004605;CALLE DE VALGAME DIOS N.1;CALLE DE VALGAME DIOS,1;767100;CALLE;DE;VALGAME DIOS;N;1;14;JUSTICIA;1;CENTRO;440894,1072;4474846,483;-3.69674;40.42215;22/02/2011;50_LTS_EX;
5001;PAPELERA_EXP;506025;;11004671;CALLE DEL BARQUILLO N.13;CALLE DEL BARQUILLO,13;94000;CALLE;DEL;BARQUILLO;N;13;14;JUSTICIA;1;CENTRO;440978,9579;4474740,359;-3.69573;40.4212;20/07/2010;50_LTS_EX;
5001;PAPELERA_EXP;514596;;11004616;CALLE DE AUGUSTO FIGUEROA N.49;CALLE DEL BARQUILLO,19;81800;CALLE;DE;AUGUSTO FIGUEROA;N;49;14;JUSTICIA;1;CENTRO;440978,7739;4474824,725;-3.69574;40.42196;20/01/2011;50_LTS_EX;
5001;PAPELERA_EXP;514598;;31037790;PLAZA DEL REY N.1;CALLE DEL BARQUILLO,8;638500;PLAZA;DEL;REY;N;1;14;JUSTICIA;1;CENTRO;440981,5298;4474635,992;-3.69569;40.42026;20/01/2011;50_LTS_EX;
5001;PAPELERA_EXP;506034;;20005360;CALLE DEL ALMIRANTE N.11;CALLE DEL CONDE DE XIQUENA,5;33000;CALLE;DEL;ALMIRANTE;N;11;14;JUSTICIA;1;CENTRO;441105,7157;4474892,551;-3.69425;40.42258;20/07/2010;50_LTS_EX;
5001;PAPELERA_EXP;514393;;11005101;CALLE DEL GENERAL CASTA헲S N.11;CALLE DEL GENERAL CASTA헲S,11;329300;CALLE;DEL;GENERAL CASTA헲S;N;11;14;JUSTICIA;1;CENTRO;441142,4292;4475246,373;-3.69385;40.42577;05/01/2011;50_LTS_EX;
5001;PAPELERA_EXP;514391;;31041452;CALLE DEL GENERAL CASTA헲S N.2;CALLE DEL GENERAL CASTA헲S,2;329300;CALLE;DEL;GENERAL CASTA헲S;N;2;14;JUSTICIA;1;CENTRO;441127,9848;4475135,48;-3.69401;40.42477;05/01/2011;50_LTS_EX;
5001;PAPELERA_EXP;505860;;11005127;CALLE DEL MARQUES DE LA ENSENADA N.12;CALLE DEL MARQUES DE LA ENSENADA,12;484900;CALLE;DEL;MARQUES DE LA ENSENADA;N;12;14;JUSTICIA;1;CENTRO;441269,5978;4475127,709;-3.69234;40.42471;19/07/2010;50_LTS_EX;
5001;PAPELERA_EXP;516612;;20103450;CALLE DEL MARQUES DE LA ENSENADA N.3;CALLE DEL MARQUES DE LA ENSENADA,3;484900;CALLE;DEL;MARQUES DE LA ENSENADA;N;3;14;JUSTICIA;1;CENTRO;441285,6497;4475227,489;-3.69216;40.42561;22/02/2011;50_LTS_EX;
5001;PAPELERA_EXP;512627;;20005410;CALLE DE ALCALA N.41;CALLE DEL MARQUES DE VALDEIGLESIAS,2;18900;CALLE;DE;ALCALA;N;41;14;JUSTICIA;1;CENTRO;440871,9603;4474512,528;-3.69697;40.41914;11/11/2010;50_LTS_EX;
5001;PAPELERA_EXP;516619;;11004254;PASEO DE RECOLETOS N.17;PASEO DE RECOLETOS,19;633005;PASEO;DE;RECOLETOS;N;17;14;JUSTICIA;1;CENTRO;441273,81;4474799,096;-3.69226;40.42175;22/02/2011;50_LTS_EX;
5001;PAPELERA_EXP;516615;;11004258;PASEO DE RECOLETOS N.25;PASEO DE RECOLETOS,25;633005;PASEO;DE;RECOLETOS;N;25;14;JUSTICIA;1;CENTRO;441324,1602;4474945,231;-3.69168;40.42307;22/02/2011;50_LTS_EX;
5001;PAPELERA_EXP;518366;;20005744;PASEO DE RECOLETOS N.39;PASEO DE RECOLETOS,43;633005;PASEO;DE;RECOLETOS;N;39;14;JUSTICIA;1;CENTRO;441377,0795;4475094,675;-3.69107;40.42442;01/03/2011;50_LTS_EX;
5001;PAPELERA_EXP;516570;;20005718;CALLE DEL GENERAL CASTA헲S N.2;PLAZA DE LAS SALESAS,5;329300;CALLE;DEL;GENERAL CASTA헲S;N;2;14;JUSTICIA;1;CENTRO;441100,4556;4475086,853;-3.69433;40.42433;22/02/2011;50_LTS_EX;
5001;PAPELERA_EXP;505876;;11005132;CALLE DE BARBARA DE BRAGANZA N.1;PLAZA DE LAS SALESAS,5;91900;CALLE;DE;BARBARA DE BRAGANZA;N;1;14;JUSTICIA;1;CENTRO;441105,2052;4475043,523;-3.69427;40.42394;19/07/2010;50_LTS_EX;
5001;PAPELERA_EXP;512629;;11005146;CALLE DE HORTALEZA N.87;PLAZA DE SANTA BARBARA,1B;365400;CALLE;DE;HORTALEZA;N;87;14;JUSTICIA;1;CENTRO;440904,8235;4475344,819;-3.69666;40.42664;11/11/2010;50_LTS_EX;
5001;PAPELERA_EXP;516568;;11005162;CALLE DE ORELLANA N.1;PLAZA DE SANTA BARBARA,7;550400;CALLE;DE;ORELLANA;N;1;14;JUSTICIA;1;CENTRO;440961,9375;4475379,891;-3.69599;40.42696;22/02/2011;50_LTS_EX;
5001;PAPELERA_EXP;516589;;11004569;PLAZA DE PEDRO ZEROLO N.10;PLAZA DE VAZQUEZ DE MELLA,10;771000;PLAZA;DE;PEDRO ZEROLO;N;10;14;JUSTICIA;1;CENTRO;440694,5974;4474721,512;-3.69908;40.42101;22/02/2011;50_LTS_EX;
5001;PAPELERA_EXP;516500;;11039702;CALLE DE ALBERTO AGUILERA N.38;CALLE DE ALBERTO AGUILERA,23;17200;CALLE;DE;ALBERTO AGUILERA;N;38;15;UNIVERSIDAD;1;CENTRO;439623,6173;4475736,895;-3.7118;40.43008;22/02/2011;50_LTS_EX;
5001;PAPELERA_EXP;505590;;11006487;CALLE DE ALBERTO AGUILERA N.33;CALLE DE ALBERTO AGUILERA,33;17200;CALLE;DE;ALBERTO AGUILERA;N;33;15;UNIVERSIDAD;1;CENTRO;439473,6244;4475755,866;-3.71357;40.43024;19/07/2010;50_LTS_EX;
5001;PAPELERA_EXP;505614;;11006463;CALLE DE ALBERTO AGUILERA N.7;CALLE DE ALBERTO AGUILERA,7;17200;CALLE;DE;ALBERTO AGUILERA;N;7;15;UNIVERSIDAD;1;CENTRO;439931,1949;4475693,35;-3.70817;40.42971;19/07/2010;50_LTS_EX;
5001;PAPELERA_EXP;518367;;11006358;CALLE DE AMANIEL N.30;CALLE DE AMANIEL,30;40700;CALLE;DE;AMANIEL;N;30;15;UNIVERSIDAD;1;CENTRO;439826,2236;4475403,354;-3.70938;40.42709;01/03/2011;50_LTS_EX;
5001;PAPELERA_EXP;516501;;11006482;CALLE DE ALBERTO AGUILERA N.21;CALLE DE BALTASAR GRACIAN,6;17200;CALLE;DE;ALBERTO AGUILERA;N;21;15;UNIVERSIDAD;1;CENTRO;439736,2621;4475714,897;-3.71047;40.42989;22/02/2011;50_LTS_EX;
5001;PAPELERA_EXP;505675;;11005392;CALLE DE CARRANZA N.25;CALLE DE CARRANZA,25;148800;CALLE;DE;CARRANZA;N;25;15;UNIVERSIDAD;1;CENTRO;440210,7486;4475645,602;-3.70487;40.4293;19/07/2010;50_LTS_EX;
5001;PAPELERA_EXP;505686;;11005353;CALLE DE CARRANZA N.5;CALLE DE CARRANZA,5;148800;CALLE;DE;CARRANZA;N;5;15;UNIVERSIDAD;1;CENTRO;440370,7917;4475609,915;-3.70298;40.42899;19/07/2010;50_LTS_EX;
5001;PAPELERA_EXP;512528;;20006006;CALLE DE EL ESCORIAL N.28;CALLE DE EL ESCORIAL,28;271700;CALLE;DE;EL ESCORIAL;N;28;15;UNIVERSIDAD;1;CENTRO;440257,263;4475095,747;-3.70427;40.42435;10/11/2010;50_LTS_EX;
5001;PAPELERA_EXP;512623;;11005637;CALLE DE FUENCARRAL N.27;CALLE DE FUENCARRAL,27;313100;CALLE;DE;FUENCARRAL;N;27;15;UNIVERSIDAD;1;CENTRO;440532,4907;4474820,482;-3.701;40.42189;11/11/2010;50_LTS_EX;
5001;PAPELERA_EXP;516553;;11004415;CALLE DE FUENCARRAL N.36;CALLE DE FUENCARRAL,39;313100;CALLE;DE;FUENCARRAL;N;36;15;UNIVERSIDAD;1;CENTRO;440550,0736;4474898,047;-3.7008;40.42259;22/02/2011;50_LTS_EX;
5001;PAPELERA_EXP;512553;;20005948;CALLE DE FUENCARRAL N.75;CALLE DE FUENCARRAL,75;313100;CALLE;DE;FUENCARRAL;N;75;15;UNIVERSIDAD;1;CENTRO;440548,8374;4475170,023;-3.70084;40.42504;10/11/2010;50_LTS_EX;
5001;PAPELERA_EXP;512545;;20005924;CALLE DE LA CORREDERA ALTA DE SAN PABLO N.20;CALLE DE LA CORREDERA ALTA DE SAN PABLO,20;212300;CALLE;DE LA;CORREDERA ALTA DE SAN PABLO;N;20;15;UNIVERSIDAD;1;CENTRO;440463,548;4475219,543;-3.70185;40.42548;10/11/2010;50_LTS_EX;
5001;PAPELERA_EXP;524484;;11007016;CALLE DE LA CORREDERA BAJA DE SAN PABLO N.1;CALLE DE LA CORREDERA BAJA DE SAN PABLO,1;212400;CALLE;DE LA;CORREDERA BAJA DE SAN PABLO;N;1;15;UNIVERSIDAD;1;CENTRO;440197,1255;4474788,738;-3.70495;40.42158;20/07/2012;50_LTS_EX;
5001;PAPELERA_EXP;516324;;20006342;CALLE DE LA LUNA N.1;CALLE DE LA LUNA,10;449600;CALLE;DE LA;LUNA;N;1;15;UNIVERSIDAD;1;CENTRO;440147,3396;4474822,437;-3.70554;40.42188;21/02/2011;50_LTS_EX;
5001;PAPELERA_EXP;518854;;11007190;CALLE DE LA LUNA N.2;CALLE DE LA LUNA,2;449600;CALLE;DE LA;LUNA;N;2;15;UNIVERSIDAD;1;CENTRO;440201,0484;4474748,744;-3.7049;40.42122;21/03/2011;50_LTS_EX;
5001;PAPELERA_EXP;514565;;20006084;CALLE DE LA PALMA N.30;CALLE DE LA PALMA,30;558900;CALLE;DE LA;PALMA;N;30;15;UNIVERSIDAD;1;CENTRO;440266,6848;4475319,906;-3.70418;40.42637;19/01/2011;50_LTS_EX;
5001;PAPELERA_EXP;516483;;11006598;CALLE DE LA PRINCESA N.16;CALLE DE LA PRINCESA,16;610000;CALLE;DE LA;PRINCESA;N;16;15;UNIVERSIDAD;1;CENTRO;439539,3641;4475282,445;-3.71275;40.42598;22/02/2011;50_LTS_EX;
5001;PAPELERA_EXP;502521;;11006602;CALLE DE LA PRINCESA N.24;CALLE DE LA PRINCESA,24;610000;CALLE;DE LA;PRINCESA;N;24;15;UNIVERSIDAD;1;CENTRO;439456,595;4475432,973;-3.71374;40.42733;13/07/2010;50_LTS_EX;
5001;PAPELERA_EXP;514559;;11006516;CALLE DE LA PRINCESA N.56;CALLE DE LA PRINCESA,56;610000;CALLE;DE LA;PRINCESA;N;56;15;UNIVERSIDAD;1;CENTRO;439270,212;4475777,493;-3.71597;40.43042;19/01/2011;50_LTS_EX;
5001;PAPELERA_EXP;512529;;11005966;CALLE DE LAS POZAS N.10;CALLE DE LAS POZAS,10;604800;CALLE;DE LAS;POZAS;N;10;15;UNIVERSIDAD;1;CENTRO;440061,7851;4475157,251;-3.70658;40.42489;10/11/2010;50_LTS_EX;
5001;PAPELERA_EXP;525823;;11006667;CALLE DE AMANIEL N.9;CALLE DE PONCIANO,14;40700;CALLE;DE;AMANIEL;N;9;15;UNIVERSIDAD;1;CENTRO;439830,0032;4475240,144;-3.70932;40.42562;03/03/2014;50_LTS_EX;
5001;PAPELERA_EXP;516538;;11005404;CALLE DE CARRANZA N.11;CALLE DE RUIZ,23;148800;CALLE;DE;CARRANZA;N;11;15;UNIVERSIDAD;1;CENTRO;440303,0562;4475625,995;-3.70378;40.42913;22/02/2011;50_LTS_EX;
5001;PAPELERA_EXP;514567;;11005471;CALLE DE SAN ANDRES N.18;CALLE DE SAN ANDRES,18;659200;CALLE;DE;SAN ANDRES;N;18;15;UNIVERSIDAD;1;CENTRO;440301,1109;4475381,795;-3.70378;40.42693;19/01/2011;50_LTS_EX;
5001;PAPELERA_EXP;503226;;11007096;CALLE DE SAN BERNARDO N.10;CALLE DE SAN BERNARDO,10;661700;CALLE;DE;SAN BERNARDO;N;10;15;UNIVERSIDAD;1;CENTRO;439967,689;4474848,295;-3.70766;40.4221;14/07/2010;50_LTS_EX;
5001;PAPELERA_EXP;516526;;31008879;CALLE DE SAN BERNARDO N.58;CALLE DE SAN BERNARDO,58;661700;CALLE;DE;SAN BERNARDO;N;58;15;UNIVERSIDAD;1;CENTRO;440002,8933;4475218,776;-3.70728;40.42544;22/02/2011;50_LTS_EX;
5001;PAPELERA_EXP;526183;;11006720;CALLE DE SAN BERNARDO N.59;CALLE DE SAN BERNARDO,64;661700;CALLE;DE;SAN BERNARDO;N;59;15;UNIVERSIDAD;1;CENTRO;440034,0799;4475299,562;-3.70692;40.42617;24/10/2014;50_LTS_EX;
5001;PAPELERA_EXP;514617;;11006136;CALLE DE SAN BERNARDO N.74;CALLE DE SAN BERNARDO,74;661700;CALLE;DE;SAN BERNARDO;N;74;15;UNIVERSIDAD;1;CENTRO;440101,8513;4475499,942;-3.70614;40.42798;20/01/2011;50_LTS_EX;
5001;PAPELERA_EXP;516517;;11006296;CALLE DE QUI헲NES N.1;CALLE DE SAN BERNARDO,79;624200;CALLE;DE;QUI헲NES;N;1;15;UNIVERSIDAD;1;CENTRO;440075,1738;4475452,423;-3.70645;40.42755;22/02/2011;50_LTS_EX;
5001;PAPELERA_EXP;516530;;20005888;CALLE DE SAN BERNARDO N.88;CALLE DE SAN BERNARDO,88;661700;CALLE;DE;SAN BERNARDO;N;88;15;UNIVERSIDAD;1;CENTRO;440119,5792;4475595,267;-3.70594;40.42884;22/02/2011;50_LTS_EX;
5001;PAPELERA_EXP;505647;;11006211;CALLE DE SAN BERNARDO N.91;CALLE DE SAN BERNARDO,91;661700;CALLE;DE;SAN BERNARDO;N;91;15;UNIVERSIDAD;1;CENTRO;440101,8725;4475608,729;-3.70615;40.42896;19/07/2010;50_LTS_EX;
5001;PAPELERA_EXP;512547;;20006050;COSTANILLA DE SAN VICENTE N.1;CALLE DE SAN VICENTE FERRER,54;687500;COSTANILLA;DE;SAN VICENTE;N;1;15;UNIVERSIDAD;1;CENTRO;440124,6771;4475277,746;-3.70585;40.42598;10/11/2010;50_LTS_EX;
5001;PAPELERA_EXP;502333;;11006320;CALLE DE SAN VICENTE FERRER N.92;CALLE DE SAN VICENTE FERRER,92;687600;CALLE;DE;SAN VICENTE FERRER;N;92;15;UNIVERSIDAD;1;CENTRO;439838,2437;4475315,562;-3.70923;40.4263;13/07/2010;50_LTS_EX;
5001;PAPELERA_EXP;516512;;11006214;CALLE DEL ACUERDO N.34;CALLE DE SANTA CRUZ DE MARCENADO,3;4700;CALLE;DEL;ACUERDO;N;34;15;UNIVERSIDAD;1;CENTRO;439973,6368;4475590,884;-3.70766;40.42879;22/02/2011;50_LTS_EX;
5001;PAPELERA_EXP;516495;;31041486;CALLE DE SERRANO JOVER N.4;CALLE DE SANTA CRUZ DE MARCENADO,33;710500;CALLE;DE;SERRANO JOVER;N;4;15;UNIVERSIDAD;1;CENTRO;439419,8003;4475708,568;-3.7142;40.42981;22/02/2011;50_LTS_EX;
5001;PAPELERA_EXP;505576;;31041480;CALLE DE LA PRINCESA N.38;CALLE DE SERRANO JOVER,2;610000;CALLE;DE LA;PRINCESA;N;38;15;UNIVERSIDAD;1;CENTRO;439350,5006;4475635,864;-3.71501;40.42915;19/07/2010;50_LTS_EX;
5001;PAPELERA_EXP;516498;;11006515;CALLE DE SERRANO JOVER N.5;CALLE DE SERRANO JOVER,5;710500;CALLE;DE;SERRANO JOVER;N;5;15;UNIVERSIDAD;1;CENTRO;439424,4632;4475760,704;-3.71415;40.43028;22/02/2011;50_LTS_EX;
5001;PAPELERA_EXP;512541;;20006370;CALLE DE SILVA N.10;CALLE DE SILVA,10;722400;CALLE;DE;SILVA;N;10;15;UNIVERSIDAD;1;CENTRO;440052,447;4474732,17;-3.70665;40.42106;10/11/2010;50_LTS_EX;
5001;PAPELERA_EXP;516321;;11005659;CALLE DE VALVERDE N.24;CALLE DE VALVERDE,24;769700;CALLE;DE;VALVERDE;N;24;15;UNIVERSIDAD;1;CENTRO;440471,5343;4474836,507;-3.70172;40.42203;21/02/2011;50_LTS_EX;
5001;PAPELERA_EXP;512551;;11005501;CALLE DE VELARDE N.13;CALLE DE VELARDE,20;772700;CALLE;DE;VELARDE;N;13;15;UNIVERSIDAD;1;CENTRO;440346,8643;4475374,77;-3.70324;40.42687;10/11/2010;50_LTS_EX;
5001;PAPELERA_EXP;512525;;11005699;CALLE DEL BARCO N.31;CALLE DEL BARCO,31;93200;CALLE;DEL;BARCO;N;31;15;UNIVERSIDAD;1;CENTRO;440404,171;4474900,316;-3.70252;40.4226;10/11/2010;50_LTS_EX;
5001;PAPELERA_EXP;502463;;11006535;CALLE DEL CONDE DUQUE N.7;CALLE DEL CONDE DUQUE,12;205200;CALLE;DEL;CONDE DUQUE;N;7;15;UNIVERSIDAD;1;CENTRO;439656,5686;4475319,337;-3.711372;40.426321;13/07/2010;50_LTS_EX;
5001;PAPELERA_EXP;514389;;31044314;CALLE DEL CONDE DUQUE N.11;CALLE DEL CONDE DUQUE,38;205200;CALLE;DEL;CONDE DUQUE;N;11;15;UNIVERSIDAD;1;CENTRO;439789,3538;4475565,721;-3.70983;40.42855;05/01/2011;50_LTS_EX;
5001;PAPELERA_EXP;516508;;11006458;CALLE DEL CONDE DUQUE N.44;CALLE DEL CONDE DUQUE,44;205200;CALLE;DEL;CONDE DUQUE;N;44;15;UNIVERSIDAD;1;CENTRO;439842,4886;4475633,008;-3.70921;40.42916;22/02/2011;50_LTS_EX;
5001;PAPELERA_EXP;514385;;20006412;CALLE DEL DESENGA헲 N.5;CALLE DEL DESENGA헲,5;235800;CALLE;DEL;DESENGA헲;N;5;15;UNIVERSIDAD;1;CENTRO;440373,624;4474686,316;-3.70286;40.42067;04/01/2011;50_LTS_EX;
5001;PAPELERA_EXP;512523;;20006414;CALLE DEL DESENGA헲 N.9;CALLE DEL DESENGA헲,9;235800;CALLE;DEL;DESENGA헲;N;9;15;UNIVERSIDAD;1;CENTRO;440317,8541;4474714,511;-3.70352;40.42092;10/11/2010;50_LTS_EX;
5001;PAPELERA_EXP;516541;;20005912;CALLE DEL DIVINO PASTOR N.1;CALLE DEL DIVINO PASTOR,1;239100;CALLE;DEL;DIVINO PASTOR;N;1;15;UNIVERSIDAD;1;CENTRO;440471,073;4475419,296;-3.70178;40.42728;22/02/2011;50_LTS_EX;
5001;PAPELERA_EXP;512550;;11005381;CALLE DEL DIVINO PASTOR N.6;CALLE DEL DIVINO PASTOR,6;239100;CALLE;DEL;DIVINO PASTOR;N;6;15;UNIVERSIDAD;1;CENTRO;440329,687;4475454,832;-3.70345;40.42759;10/11/2010;50_LTS_EX;
5001;PAPELERA_EXP;516503;;11006553;CALLE DEL DUQUE DE LIRIA N.1;CALLE DEL DUQUE DE LIRIA,1;253300;CALLE;DEL;DUQUE DE LIRIA;N;1;15;UNIVERSIDAD;1;CENTRO;439603,6366;4475257,505;-3.71199;40.42576;22/02/2011;50_LTS_EX;
5001;PAPELERA_EXP;512543;;11006027;CALLE DEL ESPIRITU SANTO N.38;CALLE DEL ESPIRITU SANTO,38;275700;CALLE;DEL;ESPIRITU SANTO;N;38;15;UNIVERSIDAD;1;CENTRO;440198,9803;4475233,86;-3.70497;40.42559;10/11/2010;50_LTS_EX;
5001;PAPELERA_EXP;516476;;31041464;CALLE DEL MAESTRO GUERRERO N.2;CALLE DEL MAESTRO GUERRERO,2;454000;CALLE;DEL;MAESTRO GUERRERO;N;2;15;UNIVERSIDAD;1;CENTRO;439746,2295;4475055,435;-3.71029;40.42395;22/02/2011;50_LTS_EX;
5001;PAPELERA_EXP;516479;;11006745;CALLE DE LOS DOS AMIGOS N.9;CALLE DEL MAESTRO GUERRERO,8A;251000;CALLE;DE LOS;DOS AMIGOS;N;9;15;UNIVERSIDAD;1;CENTRO;439708,52;4475113,462;-3.71074;40.42447;22/02/2011;50_LTS_EX;
5001;PAPELERA_EXP;528098;;11005980;CALLE DEL PEZ N.28;CALLE DEL MARQUES DE SANTA ANA,1;586500;CALLE;DEL;PEZ;N;28;15;UNIVERSIDAD;1;CENTRO;440127,9934;4475055,706;-3.70579;40.42398;11/08/2016;50_LTS_EX;
5001;PAPELERA_EXP;516520;;11006127;CALLE DEL ESPIRITU SANTO N.24;CALLE DEL MARQUES DE SANTA ANA,34;275700;CALLE;DEL;ESPIRITU SANTO;N;24;15;UNIVERSIDAD;1;CENTRO;440303,9465;4475205,272;-3.70373;40.42534;22/02/2011;50_LTS_EX;
5001;PAPELERA_EXP;516524;;11005940;CALLE DEL PEZ N.38;CALLE DEL PEZ,38;586500;CALLE;DEL;PEZ;N;38;15;UNIVERSIDAD;1;CENTRO;440040,9376;4475096,364;-3.70682;40.42434;22/02/2011;50_LTS_EX;
5001;PAPELERA_EXP;516490;;11006511;CALLE DEL SEMINARIO DE NOBLES N.4;CALLE DEL SEMINARIO DE NOBLES,4;707950;CALLE;DEL;SEMINARIO DE NOBLES;N;4;15;UNIVERSIDAD;1;CENTRO;439464,9735;4475525,041;-3.71365;40.42816;22/02/2011;50_LTS_EX;
5001;PAPELERA_EXP;512544;;20006068;CALLE DEL TESORO N.22;CALLE DEL TESORO,22;740900;CALLE;DEL;TESORO;N;22;15;UNIVERSIDAD;1;CENTRO;440127,2278;4475172,269;-3.70581;40.42503;10/11/2010;50_LTS_EX;
5001;PAPELERA_EXP;501667;;11006812;CALLE  GRAN VIA N.76;CALLE GRAN VIA,76;342950;CALLE;;GRAN VIA;N;76;15;UNIVERSIDAD;1;CENTRO;439764,1518;4474963,155;-3.71007;40.42312;12/07/2010;50_LTS_EX;
5001;PAPELERA_EXP;514386;;11005816;PLAZA DE CARLOS CAMBRONERO N.2;PLAZA DE CARLOS CAMBRONERO,5;143000;PLAZA;DE;CARLOS CAMBRONERO;N;2;15;UNIVERSIDAD;1;CENTRO;440277,4269;4474964,598;-3.70402;40.42317;04/01/2011;50_LTS_EX;
5001;PAPELERA_EXP;514390;;11006383;CALLE DEL CONDE DUQUE N.22;PLAZA DE LOS GUARDIAS DE CORPS,4;205200;CALLE;DEL;CONDE DUQUE;N;22;15;UNIVERSIDAD;1;CENTRO;439736,3878;4475414,067;-3.71044;40.42718;05/01/2011;50_LTS_EX;
5001;PAPELERA_EXP;514387;;11005587;PLAZA DE SAN ILDEFONSO N.4;PLAZA DE SAN ILDEFONSO,5;671900;PLAZA;DE;SAN ILDEFONSO;N;4;15;UNIVERSIDAD;1;CENTRO;440443,7214;4475073,172;-3.70207;40.42416;04/01/2011;50_LTS_EX;
5001;PAPELERA_EXP;514384;;11006737;PLAZA DEL CONDE DE TORENO N.1;PLAZA DEL CONDE DE TORENO,1;206700;PLAZA;DEL;CONDE DE TORENO;N;1;15;UNIVERSIDAD;1;CENTRO;439839,06;4475100,202;-3.7092;40.42436;04/01/2011;50_LTS_EX;
5001;PAPELERA_EXP;514566;;11006142;PLAZA DEL DOS DE MAYO N.3;PLAZA DEL DOS DE MAYO,3;251900;PLAZA;DEL;DOS DE MAYO;N;3;15;UNIVERSIDAD;1;CENTRO;440248,6422;4475397,754;-3.7044;40.42707;19/01/2011;50_LTS_EX;
5001;PAPELERA_EXP;518361;;20006722;CALLE DE LA MONTERA N.2;CALLE DE LA MONTERA,2;519000;CALLE;DE LA;MONTERA;N;2;16;SOL;1;CENTRO;440361,281;4474307,881;-3.70297;40.41726;01/03/2011;50_LTS_EX;
5001;PAPELERA_EXP;518363;;20006618;CALLE DE LA MONTERA N.46;CALLE DE LA MONTERA,47;519000;CALLE;DE LA;MONTERA;N;46;16;SOL;1;CENTRO;440471,9814;4474572,307;-3.70169;40.41965;01/03/2011;50_LTS_EX;
5001;PAPELERA_EXP;514602;;11007333;CALLE DE LA SALUD N.11;CALLE DE LA SALUD,11;656500;CALLE;DE LA;SALUD;N;11;16;SOL;1;CENTRO;440328,9623;4474511,281;-3.70337;40.41909;20/01/2011;50_LTS_EX;
5001;PAPELERA_EXP;512631;;20006554;CALLE DE LA SALUD N.12;CALLE DE LA SALUD,12;656500;CALLE;DE LA;SALUD;N;12;16;SOL;1;CENTRO;440361,889;4474597,604;-3.70299;40.41987;11/11/2010;50_LTS_EX;
5001;PAPELERA_EXP;518360;;20007018;CALLE DE LAS POSTAS N.17;CALLE DE LAS POSTAS,19;604200;CALLE;DE LAS;POSTAS;N;17;16;SOL;1;CENTRO;440079,0093;4474128,081;-3.70628;40.41562;01/03/2011;50_LTS_EX;
5001;PAPELERA_EXP;524328;;20006550;CALLE DE PRECIADOS N.46;CALLE DE LAS VENERAS,9;608100;CALLE;DE;PRECIADOS;N;46;16;SOL;1;CENTRO;439961,3582;4474587,48;-3.70771;40.41975;18/05/2012;50_LTS_EX;
5001;PAPELERA_EXP;518484;;20006852;CALLE DE LOS CUCHILLEROS N.5;CALLE DE LOS CUCHILLEROS,3;224400;CALLE;DE LOS;CUCHILLEROS;N;5;16;SOL;1;CENTRO;439928,8621;4474026,046;-3.70804;40.41469;04/03/2011;50_LTS_EX;
5001;PAPELERA_EXP;514558;;11007308;CALLE DE LA ABADA N.9;CALLE DE MESONERO ROMANOS,7;200;CALLE;DE LA;ABADA;N;9;16;SOL;1;CENTRO;440236,8886;4474561,967;-3.70446;40.41954;19/01/2011;50_LTS_EX;
5001;PAPELERA_EXP;515934;;20006844;CALLE DE LA CONCEPCION JERONIMA N.14;CALLE DE SANTO TOMAS,7;203100;CALLE;DE LA;CONCEPCION JERONIMA;N;14;16;SOL;1;CENTRO;440141,2221;4473949,974;-3.70553;40.41402;18/02/2011;50_LTS_EX;
5001;PAPELERA_EXP;516629;;11007384;CALLE DEL CABALLERO DE GRACIA N.24;CALLE DEL CABALLERO DE GRACIA,24;120100;CALLE;DEL;CABALLERO DE GRACIA;N;24;16;SOL;1;CENTRO;440627,7454;4474528,889;-3.69985;40.41927;22/02/2011;50_LTS_EX;
5001;PAPELERA_EXP;516856;;11007605;CALLE DEL MARQUES VIUDO DE PONTEJOS N.1;CALLE DEL MARQUES VIUDO DE PONTEJOS,1;488350;CALLE;DEL;MARQUES VIUDO DE PONTEJOS;N;1;16;SOL;1;CENTRO;440237,7769;4474141,245;-3.70441;40.41575;09/08/2017;50_LTS_EX;
5001;PAPELERA_EXP;518364;;11007298;CALLE DE PRECIADOS N.25;CALLE DEL POSTIGO DE SAN MARTIN,10;608100;CALLE;DE;PRECIADOS;N;25;16;SOL;1;CENTRO;440119,8415;4474566,231;-3.70584;40.41957;01/03/2011;50_LTS_EX;
5001;PAPELERA_EXP;514381;;20007094;CALLE  MAYOR N.36;CALLE MAYOR,36;497800;CALLE;;MAYOR;N;36;16;SOL;1;CENTRO;439923,3733;4474188,16;-3.70812;40.41615;04/01/2011;50_LTS_EX;
5001;PAPELERA_EXP;512632;;11007219;PLAZA DEL CALLAO N.3;PLAZA DE CALLAO,3;125900;PLAZA;DEL;CALLAO;N;3;16;SOL;1;CENTRO;440131,3932;4474631,633;-3.70571;40.42016;11/11/2010;50_LTS_EX;
5001;PAPELERA_EXP;516862;;11007462;PLAZA DE CANALEJAS N.6;PLAZA DE CANALEJAS,6;131900;PLAZA;DE;CANALEJAS;N;6;16;SOL;1;CENTRO;440561,7332;4474228,585;-3.7006;40.41656;23/02/2011;50_LTS_EX;
5001;PAPELERA_EXP;514524;;31037614;PLAZA DE LAS DESCALZAS N.1;PLAZA DE LAS DESCALZAS,1;235600;PLAZA;DE LAS;DESCALZAS;N;1;16;SOL;1;CENTRO;440103,2141;4474396,524;-3.70602;40.41804;18/01/2011;50_LTS_EX;
5001;PAPELERA_EXP;514376;;11007627;CALLE DE ATOCHA N.1;PLAZA DE SANTA CRUZ,2;81600;CALLE;DE;ATOCHA;N;1;16;SOL;1;CENTRO;440147,0836;4474046,503;-3.70547;40.41489;04/01/2011;50_LTS_EX;
5001;PAPELERA_EXP;518362;;31048969;PLAZA DEL CARMEN N.10;PLAZA DEL CARMEN,1;145800;PLAZA;DEL;CARMEN;N;10;16;SOL;1;CENTRO;440346,3717;4474460,079;-3.70316;40.41863;01/03/2011;50_LTS_EX;
5001;PAPELERA_EXP;518485;;20007108;CALLE DEL ARENAL N.14;PLAZA DEL CELENQUE,1;68300;CALLE;DEL;ARENAL;N;14;16;SOL;1;CENTRO;440098,2538;4474306,648;-3.70607;40.41723;04/03/2011;50_LTS_EX;
5001;PAPELERA_EXP;512444;;31025751;TRAVESIA DE BRINGAS N.1;TRAVESIA DE BRINGAS,1;115300;TRAVESIA;DE;BRINGAS;N;1;16;SOL;1;CENTRO;439873,8277;4474146,375;-3.7087;40.41577;05/11/2010;50_LTS_EX;
5001;PAPELERA_EXP;518177;;20130588;CALLE DE BERCIAL N.7;CALLE DE BERCIAL,7;2297;CALLE;DE;BERCIAL;N;7;21;IMPERIAL;2;ARGANZUELA;438891,5608;4473136,383;-3.72018;40.4066;28/02/2011;50_LTS_EX;
5001;PAPELERA_EXP;516064;;20092391;CALLE DE COBOS DE SEGOVIA N.9;CALLE DE COBOS DE SEGOVIA,9;2296;CALLE;DE;COBOS DE SEGOVIA;N;9;21;IMPERIAL;2;ARGANZUELA;439003,8005;4472955,639;-3.71884;40.40498;18/02/2011;50_LTS_EX;
5001;PAPELERA_EXP;516067;;20078222;CALLE DE COBOS DE SEGOVIA N.14;CALLE DE ETREROS,2;2296;CALLE;DE;COBOS DE SEGOVIA;N;14;21;IMPERIAL;2;ARGANZUELA;438965,6617;4473065,845;-3.7193;40.40597;18/02/2011;50_LTS_EX;
5001;PAPELERA_EXP;516042;;20122189;CALLE DE JEMENU헲 N.2;CALLE DE JEMENU헲,2C;2323;CALLE;DE;JEMENU헲;N;2;21;IMPERIAL;2;ARGANZUELA;438978,075;4473339,931;-3.71918;40.40844;18/02/2011;50_LTS_EX;
5001;PAPELERA_EXP;514411;;11008061;CALLE DE JUAN DUQUE N.26;CALLE DE JUAN DUQUE,25;412100;CALLE;DE;JUAN DUQUE;N;26;21;IMPERIAL;2;ARGANZUELA;438959,7719;4473697,522;-3.71943;40.41166;07/01/2011;50_LTS_EX;
5001;PAPELERA_EXP;476184;;20007208;CALLE DE LINNEO N.35;CALLE DE LINNEO,35;438900;CALLE;DE;LINNEO;N;35;21;IMPERIAL;2;ARGANZUELA;438862,9526;4473478,517;-3.72055;40.40968;20/04/2010;50_LTS_EX;
5001;PAPELERA_EXP;514409;;11008018;CALLE DE MORENO NIETO N.20;CALLE DE MORENO NIETO,20;523200;CALLE;DE;MORENO NIETO;N;20;21;IMPERIAL;2;ARGANZUELA;438815,1019;4473749,765;-3.72114;40.41212;07/01/2011;50_LTS_EX;
5001;PAPELERA_EXP;518178;;20078294;CALLE DE PARADINAS N.23;CALLE DE PARADINAS,23;2298;CALLE;DE;PARADINAS;N;23;21;IMPERIAL;2;ARGANZUELA;438963,2505;4472873,823;-3.71931;40.40424;28/02/2011;50_LTS_EX;
5001;PAPELERA_EXP;516087;;31001537;CALLE DE SAN EPIFANIO N.7;CALLE DE SAN EPIFANIO,5;666300;CALLE;DE;SAN EPIFANIO;N;7;21;IMPERIAL;2;ARGANZUELA;438999,1244;4472589,354;-3.71886;40.40168;18/02/2011;50_LTS_EX;
5001;PAPELERA_EXP;516073;;11007958;CALLE DE SEGOVIA N.63;CALLE DE SEGOVIA,63;706300;CALLE;DE;SEGOVIA;N;63;21;IMPERIAL;2;ARGANZUELA;438990,5885;4473939,267;-3.71909;40.41384;18/02/2011;50_LTS_EX;
5001;PAPELERA_EXP;516059;;11008242;CALLE DE TOLEDO N.134;CALLE DE TOLEDO,134B;743600;CALLE;DE;TOLEDO;N;134;21;IMPERIAL;2;ARGANZUELA;439511,8006;4472917,112;-3.71285;40.40467;18/02/2011;50_LTS_EX;
5001;PAPELERA_EXP;490599;;20084999;CALLE DE TOLEDO N.178;CALLE DE TOLEDO,178;743600;CALLE;DE;TOLEDO;N;178;21;IMPERIAL;2;ARGANZUELA;439400,7742;4472619,401;-3.71413;40.40198;18/06/2010;50_LTS_EX;
5001;PAPELERA_EXP;516050;;31014026;CALLE DE VILLOSLADA N.1;CALLE DE VILLOSLADA,2;2922;CALLE;DE;VILLOSLADA;N;1;21;IMPERIAL;2;ARGANZUELA;439226,3287;4473189,166;-3.71624;40.4071;18/02/2011;50_LTS_EX;
5001;PAPELERA_EXP;490782;;20147663;CALLE DE VILLOSLADA N.20;CALLE DE VILLOSLADA,22;2922;CALLE;DE;VILLOSLADA;N;20;21;IMPERIAL;2;ARGANZUELA;439257,7183;4473083,456;-3.71586;40.40615;21/06/2010;50_LTS_EX;
5001;PAPELERA_EXP;490800;;11008266;GLORIETA DE LA PUERTA DE TOLEDO N.4;GLORIETA DE LA PUERTA DE TOLEDO,4;615000;GLORIETA;DE LA;PUERTA DE TOLEDO;N;4;21;IMPERIAL;2;ARGANZUELA;439557,5353;4473116,555;-3.71233;40.40647;21/06/2010;50_LTS_EX;
5001;PAPELERA_EXP;519080;;20002575;CALLE DE ALEJANDRO DUMAS N.2;GLORIETA DE LAS PIRAMIDES,6;23300;CALLE;DE;ALEJANDRO DUMAS;N;2;21;IMPERIAL;2;ARGANZUELA;439352,6305;4472437,739;-3.71468;40.40034;04/04/2011;50_LTS_EX;
5001;PAPELERA_EXP;514694;;31041210;CALLE DE SEGOVIA N.81;PASEO BAJO DE LA VIRGEN DEL PUERTO,1;706300;CALLE;DE;SEGOVIA;N;81;21;IMPERIAL;2;ARGANZUELA;438755,5818;4473942,293;-3.72186;40.41385;21/01/2011;50_LTS_EX;
5001;PAPELERA_EXP;514406;;20085014;PASEO DE JUAN ANTONIO VALLEJO-NAJERA BOTAS N.55;PASEO DE JUAN ANTONIO VALLEJO NAGERA BOTAS,55;917;PASEO;DE;JUAN ANTONIO VALLEJO-NAJERA BOTAS;N;55;21;IMPERIAL;2;ARGANZUELA;439348,0178;4472811,869;-3.71477;40.40371;07/01/2011;50_LTS_EX;
5001;PAPELERA_EXP;514692;;31049411;PARQUE  MADRID RIO K.300;PASEO DE LA VIRGEN DEL PUERTO,37;31003715;PARQUE;;MADRID RIO;K;300;21;IMPERIAL;2;ARGANZUELA;438742,4353;4473579,407;-3.72198;40.41058;21/01/2011;50_LTS_EX;
5001;PAPELERA_EXP;514685;;31049514;PARQUE  MADRID RIO K.320;PASEO DE LA VIRGEN DEL PUERTO,45;31003715;PARQUE;;MADRID RIO;K;320;21;IMPERIAL;2;ARGANZUELA;438796,6983;4473470,177;-3.72133;40.4096;21/01/2011;50_LTS_EX;
5001;PAPELERA_EXP;490636;;11008205;PASEO DE LA VIRGEN DEL PUERTO N.51;PASEO DE LA VIRGEN DEL PUERTO,51;795300;PASEO;DE LA;VIRGEN DEL PUERTO;N;51;21;IMPERIAL;2;ARGANZUELA;438797,2448;4473329,194;-3.72131;40.40833;21/06/2010;50_LTS_EX;
5001;PAPELERA_EXP;490629;;11008208;PASEO DE LA VIRGEN DEL PUERTO N.57;PASEO DE LA VIRGEN DEL PUERTO,57;795300;PASEO;DE LA;VIRGEN DEL PUERTO;N;57;21;IMPERIAL;2;ARGANZUELA;438730,945;4473107,722;-3.72207;40.40633;21/06/2010;50_LTS_EX;
5001;PAPELERA_EXP;514681;;11008209;PASEO DE LA VIRGEN DEL PUERTO N.59;PASEO DE LA VIRGEN DEL PUERTO,59;795300;PASEO;DE LA;VIRGEN DEL PUERTO;N;59;21;IMPERIAL;2;ARGANZUELA;438719,0888;4473006,802;-3.7222;40.40542;21/01/2011;50_LTS_EX;
5001;PAPELERA_EXP;512404;;11008212;PASEO DE LA VIRGEN DEL PUERTO N.65;PASEO DE LA VIRGEN DEL PUERTO,65;795300;PASEO;DE LA;VIRGEN DEL PUERTO;N;65;21;IMPERIAL;2;ARGANZUELA;438723,5271;4472926,841;-3.72214;40.4047;05/11/2010;50_LTS_EX;
5001;PAPELERA_EXP;514405;;31005059;PASEO DE LOS MELANCOLICOS N.28;PASEO DE LOS MELANCOLICOS,28A;500700;PASEO;DE LOS;MELANCOLICOS;N;28;21;IMPERIAL;2;ARGANZUELA;438868,1112;4472758,041;-3.72042;40.40319;07/01/2011;50_LTS_EX;
5001;PAPELERA_EXP;516082;;20135236;PASEO DE LOS MELANCOLICOS N.4;PASEO DE LOS MELANCOLICOS,5;500700;PASEO;DE LOS;MELANCOLICOS;N;4;21;IMPERIAL;2;ARGANZUELA;439010,6972;4473490,635;-3.71881;40.4098;18/02/2011;50_LTS_EX;
5001;PAPELERA_EXP;516039;;20120126;PASEO  IMPERIAL N.26;PASEO DE PONTONES,16;372200;PASEO;;IMPERIAL;N;26;21;IMPERIAL;2;ARGANZUELA;439126,1529;4472974,626;-3.7174;40.40516;18/02/2011;50_LTS_EX;
5001;PAPELERA_EXP;516054;;11008162;PASEO DE LOS PONTONES N.8;PASEO DE PONTONES,8;602500;PASEO;DE LOS;PONTONES;N;8;21;IMPERIAL;2;ARGANZUELA;439357,1716;4472999,396;-3.71468;40.4054;18/02/2011;50_LTS_EX;
5001;PAPELERA_EXP;490771;;20007226;PASEO  IMPERIAL N.35;PASEO IMPERIAL,22;372200;PASEO;;IMPERIAL;N;35;21;IMPERIAL;2;ARGANZUELA;439158,5824;4473206,367;-3.71704;40.40725;21/06/2010;50_LTS_EX;
5001;PAPELERA_EXP;517337;;11008114;PASEO  IMPERIAL N.19;PASEO IMPERIAL,23;372200;PASEO;;IMPERIAL;N;19;21;IMPERIAL;2;ARGANZUELA;439130,9671;4473355,7;-3.71738;40.408593;24/02/2011;50_LTS_EX;
5001;PAPELERA_EXP;516036;;20152017;PASEO  IMPERIAL N.2;PASEO IMPERIAL,2A;372200;PASEO;;IMPERIAL;N;2;21;IMPERIAL;2;ARGANZUELA;439054,6555;4473574,643;-3.7183;40.41056;18/02/2011;50_LTS_EX;
5001;PAPELERA_EXP;490603;;20084973;PASEO  IMPERIAL N.89;PASEO IMPERIAL,89;372200;PASEO;;IMPERIAL;N;89;21;IMPERIAL;2;ARGANZUELA;439317,8916;4472654,483;-3.71511;40.40229;18/06/2010;50_LTS_EX;
5001;PAPELERA_EXP;516046;;11008129;RONDA DE SEGOVIA N.16;RONDA DE SEGOVIA,16;706400;RONDA;DE;SEGOVIA;N;16;21;IMPERIAL;2;ARGANZUELA;439171,7491;4473365;-3.7169;40.40868;18/02/2011;50_LTS_EX;
5001;PAPELERA_EXP;490819;;20089194;RONDA DE SEGOVIA N.2;RONDA DE SEGOVIA,2H;706400;RONDA;DE;SEGOVIA;N;2;21;IMPERIAL;2;ARGANZUELA;439102,0867;4473772,96;-3.71776;40.41235;21/06/2010;50_LTS_EX;
5001;PAPELERA_EXP;490794;;20184196;RONDA DE SEGOVIA N.48;RONDA DE SEGOVIA,48;706400;RONDA;DE;SEGOVIA;N;48;21;IMPERIAL;2;ARGANZUELA;439458,8941;4473196,166;-3.7135;40.40718;21/06/2010;50_LTS_EX;
5001;PAPELERA_EXP;490792;;31041969;TRAVESIA DE GIL IMON N.11;TRAVESIA DE GIL IMON,11;336600;TRAVESIA;DE;GIL IMON;N;11;21;IMPERIAL;2;ARGANZUELA;439404,4724;4473182,174;-3.71414;40.40705;21/06/2010;50_LTS_EX;
5001;PAPELERA_EXP;491538;;20065135;CALLE DE ARGANDA N.40;CALLE DE ARGANDA,40;69800;CALLE;DE;ARGANDA;N;40;22;ACACIAS;2;ARGANZUELA;440115,0804;4472376,11;-3.70569;40.39984;22/06/2010;50_LTS_EX;
5001;PAPELERA_EXP;490326;;11008594;CALLE DE EMBAJADORES N.100;CALLE DE EMBAJADORES,100;262000;CALLE;DE;EMBAJADORES;N;100;22;ACACIAS;2;ARGANZUELA;440539,1174;4472660,243;-3.70072;40.40243;17/06/2010;50_LTS_EX;
5001;PAPELERA_EXP;518496;;31042019;PASEO DE JUAN ANTONIO VALLEJO-NAJERA BOTAS N.3;CALLE DE ERCILLA,47;917;PASEO;DE;JUAN ANTONIO VALLEJO-NAJERA BOTAS;N;3;22;ACACIAS;2;ARGANZUELA;440491,1777;4472500,775;-3.70127;40.40099;04/03/2011;50_LTS_EX;
5001;PAPELERA_EXP;514402;;20144433;CALLE DE GARGANTILLA N.2;CALLE DE GARGANTILLA,2;2306;CALLE;DE;GARGANTILLA;N;2;22;ACACIAS;2;ARGANZUELA;440273,0277;4472281,606;-3.70382;40.399;07/01/2011;50_LTS_EX;
5001;PAPELERA_EXP;490469;;20145962;CALLE DE LA RIBERA DE CURTIDORES N.43;CALLE DE LA RIBERA DE CURTIDORES,43;639680;CALLE;DE LA;RIBERA DE CURTIDORES;N;43;22;ACACIAS;2;ARGANZUELA;440027,9482;4472941,829;-3.70677;40.40493;18/06/2010;50_LTS_EX;
5001;PAPELERA_EXP;520953;;31057148;CALLE DE LAS NAVES N.2;CALLE DE LAS NAVES,2;531500;CALLE;DE LAS;NAVES;N;2;22;ACACIAS;2;ARGANZUELA;440001,7467;4472106,16;-3.707;40.3974;05/07/2011;50_LTS_EX;
5001;PAPELERA_EXP;491404;;20065209;CALLE DE LAS NAVES N.30;CALLE DE LAS NAVES,30;531500;CALLE;DE LAS;NAVES;N;30;22;ACACIAS;2;ARGANZUELA;440157,8798;4472209,259;-3.70517;40.39834;22/06/2010;50_LTS_EX;
5001;PAPELERA_EXP;516102;;20007308;CALLE DE ARGANDA N.5;CALLE DE MELILLA,15;69800;CALLE;DE;ARGANDA;N;5;22;ACACIAS;2;ARGANZUELA;439921,1096;4472528,63;-3.70799;40.4012;18/02/2011;50_LTS_EX;
5001;PAPELERA_EXP;519189;;20147831;CALLE DE MELILLA N.31;CALLE DE MELILLA,37;501150;CALLE;DE;MELILLA;N;31;22;ACACIAS;2;ARGANZUELA;439865,5241;4472475,792;-3.70864;40.40072;05/04/2011;50_LTS_EX;
5001;PAPELERA_EXP;521466;;20123821;CALLE DE MELILLA N.65;CALLE DE MELILLA,65;501150;CALLE;DE;MELILLA;N;65;22;ACACIAS;2;ARGANZUELA;439702,2276;4472431,591;-3.71056;40.40031;21/09/2011;50_LTS_EX;
5001;PAPELERA_EXP;521467;;20123737;CALLE DE MELILLA N.9;CALLE DE MELILLA,7;501150;CALLE;DE;MELILLA;N;9;22;ACACIAS;2;ARGANZUELA;439791,6494;4472576,291;-3.70952;40.40162;21/09/2011;50_LTS_EX;
5001;PAPELERA_EXP;516123;;31016197;CALLE DE ERCILLA N.15;CALLE DE MORATINES,15;270200;CALLE;DE;ERCILLA;N;15;22;ACACIAS;2;ARGANZUELA;440345,2439;4472718,396;-3.70301;40.40294;18/02/2011;50_LTS_EX;
5001;PAPELERA_EXP;490396;;20107689;CALLE DE MORATINES N.27;CALLE DE MORATINES,27;522400;CALLE;DE;MORATINES;N;27;22;ACACIAS;2;ARGANZUELA;440195,5673;4472571,949;-3.70476;40.40161;17/06/2010;50_LTS_EX;
5001;PAPELERA_EXP;517029;;11008312;CALLE DE TOLEDO N.139;CALLE DE TOLEDO,139;743600;CALLE;DE;TOLEDO;N;139;22;ACACIAS;2;ARGANZUELA;439560,3199;4472935,592;-3.71228;40.40484;23/02/2011;50_LTS_EX;
5001;PAPELERA_EXP;514416;;11008444;CALLE DEL GASOMETRO N.1;CALLE DEL GASOMETRO,1;326900;CALLE;DEL;GASOMETRO;N;1;22;ACACIAS;2;ARGANZUELA;439883,5678;4473032,9;-3.70848;40.40574;10/01/2011;50_LTS_EX;
5001;PAPELERA_EXP;516301;;11008587;CALLE DEL LABRADOR N.18;CALLE DEL LABRADOR,18;427300;CALLE;DEL;LABRADOR;N;18;22;ACACIAS;2;ARGANZUELA;440394,7556;4472541,502;-3.70241;40.40135;21/02/2011;50_LTS_EX;
5001;PAPELERA_EXP;518283;;20107659;CALLE DEL LAUREL N.27;CALLE DEL LAUREL,27;431800;CALLE;DEL;LAUREL;N;27;22;ACACIAS;2;ARGANZUELA;440245,2981;4472635,937;-3.70418;40.40219;28/02/2011;50_LTS_EX;
5001;PAPELERA_EXP;514705;;20007370;CALLE DE EMBAJADORES N.72;GLORIETA DE EMBAJADORES,5;262000;CALLE;DE;EMBAJADORES;N;72;22;ACACIAS;2;ARGANZUELA;440403,4562;4472888,883;-3.70234;40.40448;21/01/2011;50_LTS_EX;
5001;PAPELERA_EXP;516094;;20007282;PASEO DE LOS OLMOS N.1;GLORIETA DE LA PUERTA DE TOLEDO,3;547300;PASEO;DE LOS;OLMOS;N;1;22;ACACIAS;2;ARGANZUELA;439637,0911;4473090,383;-3.71139;40.40624;18/02/2011;50_LTS_EX;
5001;PAPELERA_EXP;490330;;31033183;GLORIETA DE SANTA MARIA DE LA CABEZA N.13;GLORIETA DE SANTA MARIA DE LA CABEZA,13;697175;GLORIETA;DE;SANTA MARIA DE LA CABEZA;N;13;22;ACACIAS;2;ARGANZUELA;440568,3469;4472493,502;-3.70036;40.40093;17/06/2010;50_LTS_EX;
5001;PAPELERA_EXP;514404;;31043478;GLORIETA DE SANTA MARIA DE LA CABEZA N.14;GLORIETA DE SANTA MARIA DE LA CABEZA,14A;697175;GLORIETA;DE;SANTA MARIA DE LA CABEZA;N;14;22;ACACIAS;2;ARGANZUELA;440627,933;4472516,342;-3.69966;40.40114;07/01/2011;50_LTS_EX;
5001;PAPELERA_EXP;513638;;20103767;PASEO DE JUAN ANTONIO VALLEJO-NAJERA BOTAS N.11;PASEO DE JUAN ANTONIO VALLEJO NAGERA BOTAS,11;917;PASEO;DE;JUAN ANTONIO VALLEJO-NAJERA BOTAS;N;11;22;ACACIAS;2;ARGANZUELA;440290,2024;4472520,133;-3.70364;40.40115;29/11/2010;50_LTS_EX;
5001;PAPELERA_EXP;490417;;31041999;PASEO DE JUAN ANTONIO VALLEJO-NAJERA BOTAS N.17;PASEO DE JUAN ANTONIO VALLEJO NAGERA BOTAS,22;917;PASEO;DE;JUAN ANTONIO VALLEJO-NAJERA BOTAS;N;17;22;ACACIAS;2;ARGANZUELA;440101,9924;4472543,834;-3.70586;40.40135;18/06/2010;50_LTS_EX;
5001;PAPELERA_EXP;490425;;20178807;PASEO DE JUAN ANTONIO VALLEJO-NAJERA BOTAS N.25;PASEO DE JUAN ANTONIO VALLEJO NAGERA BOTAS,25E;917;PASEO;DE;JUAN ANTONIO VALLEJO-NAJERA BOTAS;N;25;22;ACACIAS;2;ARGANZUELA;439936,2467;4472617,314;-3.70782;40.402;18/06/2010;50_LTS_EX;
5001;PAPELERA_EXP;514408;;20178822;PASEO DE JUAN ANTONIO VALLEJO-NAJERA BOTAS N.25;PASEO DE JUAN ANTONIO VALLEJO NAGERA BOTAS,27;917;PASEO;DE;JUAN ANTONIO VALLEJO-NAJERA BOTAS;N;25;22;ACACIAS;2;ARGANZUELA;439851,4776;4472629,094;-3.70882;40.4021;07/01/2011;50_LTS_EX;
5001;PAPELERA_EXP;516098;;20002215;PASEO DE JUAN ANTONIO VALLEJO-NAJERA BOTAS N.45;PASEO DE JUAN ANTONIO VALLEJO NAGERA BOTAS,45;917;PASEO;DE;JUAN ANTONIO VALLEJO-NAJERA BOTAS;N;45;22;ACACIAS;2;ARGANZUELA;439540,881;4472734,827;-3.71249;40.40303;18/02/2011;50_LTS_EX;
5001;PAPELERA_EXP;514407;;31041998;PASEO DE JUAN ANTONIO VALLEJO-NAJERA BOTAS N.15;PASEO DE LA ESPERANZA,10;917;PASEO;DE;JUAN ANTONIO VALLEJO-NAJERA BOTAS;N;15;22;ACACIAS;2;ARGANZUELA;440174,8029;4472522,162;-3.705;40.40116;07/01/2011;50_LTS_EX;
5001;PAPELERA_EXP;491580;;11008647;PASEO DE LA ESPERANZA N.39;PASEO DE LA ESPERANZA,37;274600;PASEO;DE LA;ESPERANZA;N;39;22;ACACIAS;2;ARGANZUELA;440292,1302;4472335,847;-3.7036;40.39949;22/06/2010;50_LTS_EX;
5001;PAPELERA_EXP;518172;;20103802;PASEO DE LA ESPERANZA N.8;PASEO DE LA ESPERANZA,8D;274600;PASEO;DE LA;ESPERANZA;N;8;22;ACACIAS;2;ARGANZUELA;440093,1391;4472710,415;-3.70598;40.40285;28/02/2011;50_LTS_EX;
5001;PAPELERA_EXP;516139;;11008515;PASEO DE LAS ACACIAS N.1;PASEO DE LAS ACACIAS,1;2900;PASEO;DE LAS;ACACIAS;N;1;22;ACACIAS;2;ARGANZUELA;440297,7233;4472931,906;-3.70359;40.40486;18/02/2011;50_LTS_EX;
5001;PAPELERA_EXP;516352;;20007356;PASEO DE LAS ACACIAS N.19;PASEO DE LAS ACACIAS,19;2900;PASEO;DE LAS;ACACIAS;N;19;22;ACACIAS;2;ARGANZUELA;440140,0781;4472849,908;-3.70544;40.40411;21/02/2011;50_LTS_EX;
5001;PAPELERA_EXP;516118;;11008409;PASEO DE LAS ACACIAS N.31;PASEO DE LAS ACACIAS,31;2900;PASEO;DE LAS;ACACIAS;N;31;22;ACACIAS;2;ARGANZUELA;439890,74;4472763,097;-3.70837;40.40331;18/02/2011;50_LTS_EX;
5001;PAPELERA_EXP;491442;;31014467;PASEO DE LAS YESERIAS N.10;PASEO DE LAS YESERIAS,10;801200;PASEO;DE LAS;YESERIAS;N;10;22;ACACIAS;2;ARGANZUELA;440184,7251;4472063,627;-3.70484;40.39703;22/06/2010;50_LTS_EX;
5001;PAPELERA_EXP;518171;;20123829;PASEO DE LAS YESERIAS N.13;PASEO DE LAS YESERIAS,13;801200;PASEO;DE LAS;YESERIAS;N;13;22;ACACIAS;2;ARGANZUELA;439652,3479;4472349,847;-3.71114;40.39957;28/02/2011;50_LTS_EX;
5001;PAPELERA_EXP;522274;;20123838;PASEO DE LAS YESERIAS N.19;PASEO DE LAS YESERIAS,19;801200;PASEO;DE LAS;YESERIAS;N;19;22;ACACIAS;2;ARGANZUELA;439725,749;4472295,974;-3.71027;40.39909;19/04/2011;50_LTS_EX;
5001;PAPELERA_EXP;520137;;31014464;PASEO DE LAS YESERIAS N.6;PASEO DE LAS YESERIAS,6;801200;PASEO;DE LAS;YESERIAS;N;6;22;ACACIAS;2;ARGANZUELA;439902,1408;4472173,561;-3.70818;40.398;19/04/2011;50_LTS_EX;
5001;PAPELERA_EXP;518279;;11008293;PASEO DE LOS OLMOS N.18;PASEO DE LOS OLMOS,18;547300;PASEO;DE LOS;OLMOS;N;18;22;ACACIAS;2;ARGANZUELA;439666,8883;4472891,442;-3.71102;40.40445;28/02/2011;50_LTS_EX;
5001;PAPELERA_EXP;513179;;11008701;PASEO DE SANTA MARIA DE LA CABEZA N.76;PASEO DE SANTA MARIA DE LA CABEZA,76;697200;PASEO;DE;SANTA MARIA DE LA CABEZA;N;76;22;ACACIAS;2;ARGANZUELA;440490,3092;4472284,319;-3.70126;40.39904;18/11/2010;50_LTS_EX;
5001;PAPELERA_EXP;516300;;11008653;PLAZA DE LAS PE헷ELAS N.10;PLAZA DE LAS PE헷ELAS,10;582400;PLAZA;DE LAS;PE헷ELAS;N;10;22;ACACIAS;2;ARGANZUELA;440335,3995;4472440,958;-3.7031;40.40044;21/02/2011;50_LTS_EX;
5001;PAPELERA_EXP;514403;;11008631;PLAZA DE LAS PE헷ELAS N.7;PLAZA DE LAS PE헷ELAS,7;582400;PLAZA;DE LAS;PE헷ELAS;N;7;22;ACACIAS;2;ARGANZUELA;440382,3637;4472477,217;-3.70255;40.40077;07/01/2011;50_LTS_EX;
5001;PAPELERA_EXP;490530;;31041981;TRAVESIA DE SAN ISIDORO DE SEVILLA N.15;PLAZA DE ORTEGA Y MUNILLA;672400;TRAVESIA;DE;SAN ISIDORO DE SEVILLA;N;15;22;ACACIAS;2;ARGANZUELA;439664,6647;4472720,509;-3.71103;40.40291;18/06/2010;50_LTS_EX;
5001;PAPELERA_EXP;518180;;11008465;RONDA DE TOLEDO N.30;RONDA DE TOLEDO,30;743800;RONDA;DE;TOLEDO;N;30;22;ACACIAS;2;ARGANZUELA;440150,5194;4472988,583;-3.70533;40.40536;28/02/2011;50_LTS_EX;
5001;PAPELERA_EXP;491817;;11008805;CALLE DE AGUILON N.15;CALLE DE AGUILON,15;9300;CALLE;DE;AGUILON;N;15;23;CHOPERA;2;ARGANZUELA;440554,1839;4472098,432;-3.70049;40.39737;22/06/2010;50_LTS_EX;
5001;PAPELERA_EXP;514769;;11009042;CALLE DE GUILLERMO DE OSMA N.11;CALLE DE GUILLERMO DE OSMA,13;350200;CALLE;DE;GUILLERMO DE OSMA;N;11;23;CHOPERA;2;ARGANZUELA;440896,6769;4471727,186;-3.69642;40.39405;24/01/2011;50_LTS_EX;
5001;PAPELERA_EXP;514708;;11008978;CALLE DE GUILLERMO DE OSMA N.18;CALLE DE GUILLERMO DE OSMA,18;350200;CALLE;DE;GUILLERMO DE OSMA;N;18;23;CHOPERA;2;ARGANZUELA;440778,5176;4471703,697;-3.69781;40.39383;21/01/2011;50_LTS_EX;
5001;PAPELERA_EXP;516230;;20007508;CALLE DE JAIME EL CONQUISTADOR N.12;CALLE DE JAIME EL CONQUISTADOR,12;388900;CALLE;DE;JAIME EL CONQUISTADOR;N;12;23;CHOPERA;2;ARGANZUELA;440749,3708;4472096,888;-3.69819;40.39737;21/02/2011;50_LTS_EX;
5001;PAPELERA_EXP;493962;;20007532;CALLE DE ALDEA DEL FRESNO N.18;CALLE DE JAIME EL CONQUISTADOR,23;22000;CALLE;DE;ALDEA DEL FRESNO;N;18;23;CHOPERA;2;ARGANZUELA;440752,1589;4471912,596;-3.69814;40.39571;25/06/2010;50_LTS_EX;
5001;PAPELERA_EXP;493935;;11008940;CALLE DE JAIME EL CONQUISTADOR N.48;CALLE DE JAIME EL CONQUISTADOR,48;388900;CALLE;DE;JAIME EL CONQUISTADOR;N;48;23;CHOPERA;2;ARGANZUELA;440716,5482;4471809,642;-3.69855;40.39478;25/06/2010;50_LTS_EX;
5001;PAPELERA_EXP;516147;;11008774;CALLE DE TORRES MIRANDA N.12;CALLE DE TORRES MIRANDA,12;749200;CALLE;DE;TORRES MIRANDA;N;12;23;CHOPERA;2;ARGANZUELA;440639,6363;4472172,13;-3.69949;40.39804;18/02/2011;50_LTS_EX;
5001;PAPELERA_EXP;491856;;20007470;GLORIETA DE SANTA MARIA DE LA CABEZA N.8;GLORIETA DE SANTA MARIA DE LA CABEZA,8;697175;GLORIETA;DE;SANTA MARIA DE LA CABEZA;N;8;23;CHOPERA;2;ARGANZUELA;440660,5012;4472449,48;-3.69927;40.40054;22/06/2010;50_LTS_EX;
5001;PAPELERA_EXP;493906;;11009110;PASEO DE LA CHOPERA N.10;PASEO DE LA CHOPERA,10;230600;PASEO;DE LA;CHOPERA;N;10;23;CHOPERA;2;ARGANZUELA;440728,8994;4471654,136;-3.69839;40.39338;25/06/2010;50_LTS_EX;
5001;PAPELERA_EXP;514707;;11008822;PASEO DE LA CHOPERA N.29;PASEO DE LA CHOPERA,29;230600;PASEO;DE LA;CHOPERA;N;29;23;CHOPERA;2;ARGANZUELA;440545,6532;4471878,708;-3.70057;40.39539;21/01/2011;50_LTS_EX;
5001;PAPELERA_EXP;518166;;20007616;PASEO DE LA CHOPERA N.4;PASEO DE LA CHOPERA,4;230600;PASEO;DE LA;CHOPERA;N;4;23;CHOPERA;2;ARGANZUELA;440466,0902;4471905,98;-3.70151;40.39563;28/02/2011;50_LTS_EX;
5001;PAPELERA_EXP;518165;;20110693;PASEO DE LA CHOPERA N.8;PASEO DE LA CHOPERA,6;230600;PASEO;DE LA;CHOPERA;N;8;23;CHOPERA;2;ARGANZUELA;440592,3961;4471779,542;-3.70001;40.3945;28/02/2011;50_LTS_EX;
5001;PAPELERA_EXP;493814;;11009072;PASEO DE LAS DELICIAS N.136;PASEO DE LAS DELICIAS,136;234700;PASEO;DE LAS;DELICIAS;N;136;23;CHOPERA;2;ARGANZUELA;441013,5963;4471593,059;-3.69503;40.39285;25/06/2010;50_LTS_EX;
5001;PAPELERA_EXP;514706;;11008784;PASEO DE SANTA MARIA DE LA CABEZA N.77;PASEO DE SANTA MARIA DE LA CABEZA,77;697200;PASEO;DE;SANTA MARIA DE LA CABEZA;N;77;23;CHOPERA;2;ARGANZUELA;440483,911;4472226,647;-3.70133;40.39852;21/01/2011;50_LTS_EX;
5001;PAPELERA_EXP;516155;;31049423;PARQUE  MADRID RIO K.650;PUENTE DE ANDALUCIA;31003715;PARQUE;;MADRID RIO;K;650;23;CHOPERA;2;ARGANZUELA;440798,7165;4471251,743;-3.69753;40.38976;18/02/2011;50_LTS_EX;
5001;PAPELERA_EXP;514396;;20141801;AVENIDA DEL PLANETARIO N.13;AVENIDA DEL PLANETARIO,13;831;AVENIDA;DEL;PLANETARIO;N;13;24;LEGAZPI;2;ARGANZUELA;442090,7618;4471606,87;-3.68234;40.39305;05/01/2011;50_LTS_EX;
5001;PAPELERA_EXP;488686;;31012250;CALLE DE ARIEL N.4;CALLE DE ARIEL,4F;31000399;CALLE;DE;ARIEL;N;4;24;LEGAZPI;2;ARGANZUELA;442313,179;4471612,927;-3.67972;40.39312;15/06/2010;50_LTS_EX;
5001;PAPELERA_EXP;513176;;31006468;CALLE DE BOLIVAR N.18;CALLE DE BOLIVAR,18D;110800;CALLE;DE;BOLIVAR;N;18;24;LEGAZPI;2;ARGANZUELA;441250,136;4471451,336;-3.69223;40.39159;18/11/2010;50_LTS_EX;
5001;PAPELERA_EXP;516198;;31006430;CALLE DE BOLIVAR N.24;CALLE DE BOLIVAR,24E;110800;CALLE;DE;BOLIVAR;N;24;24;LEGAZPI;2;ARGANZUELA;441363,6378;4471421,587;-3.69089;40.39133;18/02/2011;50_LTS_EX;
5001;PAPELERA_EXP;516180;;31040643;CALLE DE EMBAJADORES N.316;CALLE DE EMBAJADORES,316B;262000;CALLE;DE;EMBAJADORES;N;316;24;LEGAZPI;2;ARGANZUELA;441380,1036;4470704,361;-3.69063;40.38487;18/02/2011;50_LTS_EX;
5001;PAPELERA_EXP;516177;;31040645;CALLE DE EMBAJADORES N.316;CALLE DE EMBAJADORES,316D;262000;CALLE;DE;EMBAJADORES;N;316;24;LEGAZPI;2;ARGANZUELA;441573,6549;4470706,182;-3.68835;40.3849;18/02/2011;50_LTS_EX;
5001;PAPELERA_EXP;516289;;31045267;CALLE DE EROS N.24;CALLE DE EROS,20;31000401;CALLE;DE;EROS;N;24;24;LEGAZPI;2;ARGANZUELA;442397,3579;4471522,366;-3.67872;40.39231;21/02/2011;50_LTS_EX;
5001;PAPELERA_EXP;516171;;31016332;CALLE DE JOSE ANTONIO ZAPATA N.14;CALLE DE JOSE ANTONIO ZAPATA,14;398600;CALLE;DE;JOSE ANTONIO ZAPATA;N;14;24;LEGAZPI;2;ARGANZUELA;441262,8247;4470795,192;-3.69202;40.38568;18/02/2011;50_LTS_EX;
5001;PAPELERA_EXP;519229;;20167880;CALLE DE JULIAN RABANEDO N.19;CALLE DE JULIAN RABANEDO,19;423100;CALLE;DE;JULIAN RABANEDO;N;19;24;LEGAZPI;2;ARGANZUELA;441101,3649;4470988,498;-3.69394;40.38741;06/04/2011;50_LTS_EX;
5001;PAPELERA_EXP;516195;;20170733;CALLE DE LA ANTRACITA N.31;CALLE DE LA ANTRACITA,31;62700;CALLE;DE LA;ANTRACITA;N;31;24;LEGAZPI;2;ARGANZUELA;441705,8507;4471442,231;-3.68686;40.39154;18/02/2011;50_LTS_EX;
5001;PAPELERA_EXP;514780;;31045271;CALLE DE MENESES N.6;CALLE DE NEREIDA,10;502400;CALLE;DE;MENESES;N;6;24;LEGAZPI;2;ARGANZUELA;442202,1674;4471415,081;-3.68101;40.39133;24/01/2011;50_LTS_EX;
5001;PAPELERA_EXP;488899;;31022353;CALLE DE TITAN N.8;CALLE DE TITAN,8;31000407;CALLE;DE;TITAN;N;8;24;LEGAZPI;2;ARGANZUELA;442411,9616;4471434,559;-3.67854;40.39152;15/06/2010;50_LTS_EX;
5001;PAPELERA_EXP;516175;;11009153;CALLE DE EMBAJADORES N.242;CALLE DEL BRONCE,46;262000;CALLE;DE;EMBAJADORES;N;242;24;LEGAZPI;2;ARGANZUELA;441341,0633;4471031,023;-3.69112;40.38781;18/02/2011;50_LTS_EX;
5001;PAPELERA_EXP;516200;;11009378;CALLE DEL BRONCE N.9;CALLE DEL BRONCE,9;115900;CALLE;DEL;BRONCE;N;9;24;LEGAZPI;2;ARGANZUELA;441635,7583;4471269,607;-3.68767;40.38998;18/02/2011;50_LTS_EX;
5001;PAPELERA_EXP;518497;;31016262;CALLE DEL BRONCE N.22;CALLE DEL HIERRO,16;115900;CALLE;DEL;BRONCE;N;22;24;LEGAZPI;2;ARGANZUELA;441473,2701;4471113,245;-3.68957;40.38856;04/03/2011;50_LTS_EX;
5001;PAPELERA_EXP;516205;;11009386;CALLE DEL HIERRO N.33;CALLE DEL HIERRO,33;362400;CALLE;DEL;HIERRO;N;33;24;LEGAZPI;2;ARGANZUELA;441465,328;4471183,24;-3.68967;40.38919;18/02/2011;50_LTS_EX;
5001;PAPELERA_EXP;513175;;11009388;CALLE DE LA ANTRACITA N.10;CALLE DEL HIERRO,6;62700;CALLE;DE LA;ANTRACITA;N;10;24;LEGAZPI;2;ARGANZUELA;441407,4842;4471275,827;-3.69036;40.39002;18/11/2010;50_LTS_EX;
5001;PAPELERA_EXP;514751;;20007700;CALLE DEL MAESTRO ARBOS N.29;CALLE DEL MAESTRO ARBOS,29;453700;CALLE;DEL;MAESTRO ARBOS;N;29;24;LEGAZPI;2;ARGANZUELA;440965,8945;4471031,744;-3.69554;40.38779;24/01/2011;50_LTS_EX;
5001;PAPELERA_EXP;493105;;11009360;CALLE DEL PLOMO N.5;CALLE DEL PLOMO,5A;600100;CALLE;DEL;PLOMO;N;5;24;LEGAZPI;2;ARGANZUELA;441481,0633;4471459,522;-3.68951;40.39168;24/06/2010;50_LTS_EX;
5001;PAPELERA_EXP;516188;;20135133;CALLE DEL PUERTO DE BEJAR N.42;CALLE DEL PUERTO DE BEJAR,13;1036;CALLE;DEL;PUERTO DE BEJAR;N;42;24;LEGAZPI;2;ARGANZUELA;441755,2016;4470911,241;-3.68623;40.38676;18/02/2011;50_LTS_EX;
5001;PAPELERA_EXP;514398;;20000295;CALLE DEL PUERTO DE BEJAR N.7;CALLE DEL PUERTO DE BEJAR,24;1036;CALLE;DEL;PUERTO DE BEJAR;N;7;24;LEGAZPI;2;ARGANZUELA;441726,0163;4471087,967;-3.68659;40.38835;05/01/2011;50_LTS_EX;
5001;PAPELERA_EXP;516192;;20000292;CALLE DEL PUERTO DE BEJAR N.5;CALLE DEL PUERTO DE BEJAR,5;1036;CALLE;DEL;PUERTO DE BEJAR;N;5;24;LEGAZPI;2;ARGANZUELA;441636,5434;4471043,15;-3.68764;40.38794;18/02/2011;50_LTS_EX;
5001;PAPELERA_EXP;514754;;20138068;CALLE DEL PUERTO DE LA CRUZ VERDE N.49;CALLE DEL PUERTO DE LA CRUZ VERDE,21;869;CALLE;DEL;PUERTO DE LA CRUZ VERDE;N;49;24;LEGAZPI;2;ARGANZUELA;441803,8365;4470834,27;-3.68565;40.38607;24/01/2011;50_LTS_EX;
5001;PAPELERA_EXP;514399;;20118252;CALLE DEL PUERTO DE LA CRUZ VERDE N.29;CALLE DEL PUERTO DE LA CRUZ VERDE,29;869;CALLE;DEL;PUERTO DE LA CRUZ VERDE;N;29;24;LEGAZPI;2;ARGANZUELA;441790,3868;4470632,344;-3.68579;40.38425;05/01/2011;50_LTS_EX;
5001;PAPELERA_EXP;516182;;20118195;CALLE DEL PUERTO DE MIRAVETE N.13;CALLE DEL PUERTO DE MIRAVETE,15;868;CALLE;DEL;PUERTO DE MIRAVETE;N;13;24;LEGAZPI;2;ARGANZUELA;441656,0711;4470825,427;-3.68739;40.38598;18/02/2011;50_LTS_EX;
5001;PAPELERA_EXP;516185;;20118276;CALLE DEL PUERTO DE LA CRUZ VERDE N.45;CALLE DEL PUERTO DE MIRAVETE,21;869;CALLE;DEL;PUERTO DE LA CRUZ VERDE;N;45;24;LEGAZPI;2;ARGANZUELA;441704,8262;4470763,995;-3.68681;40.38543;18/02/2011;50_LTS_EX;
5001;PAPELERA_EXP;519192;;11009217;CALLE DE RICARDO GOIZUETA N.3;CALLE DEL TENIENTE CORONEL NORE헤,30;640400;CALLE;DE;RICARDO GOIZUETA;N;3;24;LEGAZPI;2;ARGANZUELA;441231,5126;4471024,109;-3.69241;40.38774;05/04/2011;50_LTS_EX;
5001;PAPELERA_EXP;516160;;31012342;PASEO DEL MOLINO N.14;PASEO DEL MOLINO,14;512900;PASEO;DEL;MOLINO;N;14;24;LEGAZPI;2;ARGANZUELA;441248,2328;4471208,248;-3.69223;40.3894;18/02/2011;50_LTS_EX;
5001;PAPELERA_EXP;516158;;20155774;CALLE DE FRIGILIANA N.2;PASEO DEL MOLINO,4;2918;CALLE;DE;FRIGILIANA;N;2;24;LEGAZPI;2;ARGANZUELA;441109,8498;4471312,568;-3.69387;40.39033;18/02/2011;50_LTS_EX;
5001;PAPELERA_EXP;514761;;20131929;CALLE DE ALICANTE N.6;CALLE DE ALICANTE,6;29900;CALLE;DE;ALICANTE;N;6;25;DELICIAS;2;ARGANZUELA;441207,3374;4471730,296;-3.69276;40.3941;24/01/2011;50_LTS_EX;
5001;PAPELERA_EXP;516260;;11009905;CALLE DE BUSTAMANTE N.7;CALLE DE BUSTAMANTE,9;119200;CALLE;DE;BUSTAMANTE;N;7;25;DELICIAS;2;ARGANZUELA;441212,2557;4472466,227;-3.69277;40.40073;21/02/2011;50_LTS_EX;
5001;PAPELERA_EXP;516221;;20007942;CALLE DE LA BATALLA DEL SALADO N.57;CALLE DE EMBAJADORES,135;96600;CALLE;DE LA;BATALLA DEL SALADO;N;57;25;DELICIAS;2;ARGANZUELA;440884,9256;4472066,957;-3.69659;40.39711;21/02/2011;50_LTS_EX;
5001;PAPELERA_EXP;493745;;11009679;CALLE DE EMBAJADORES N.151;CALLE DE EMBAJADORES,151;262000;CALLE;DE;EMBAJADORES;N;151;25;DELICIAS;2;ARGANZUELA;440940,9633;4471962,17;-3.69592;40.39617;25/06/2010;50_LTS_EX;
5001;PAPELERA_EXP;516206;;31042050;CALLE DEL GRANITO N.2;CALLE DE EMBAJADORES,177C;2729;CALLE;DEL;GRANITO;N;2;25;DELICIAS;2;ARGANZUELA;441190,2207;4471603,883;-3.69295;40.39296;18/02/2011;50_LTS_EX;
5001;PAPELERA_EXP;516336;;20064306;CALLE DE JUAN DE MARIANA N.14;CALLE DE JUAN DE MARIANA,14;414800;CALLE;DE;JUAN DE MARIANA;N;14;25;DELICIAS;2;ARGANZUELA;441774,2289;4472159,908;-3.68612;40.39801;21/02/2011;50_LTS_EX;
5001;PAPELERA_EXP;526965;;20121875;PLAZA DEL AMANECER EN MENDEZ ALVARO N.4;CALLE DE JUAN DE MARIANA,26;2871;PLAZA;DEL;AMANECER EN MENDEZ ALVARO;N;4;25;DELICIAS;2;ARGANZUELA;441869,2354;4472263,517;-3.68501;40.39895;23/04/2015;50_LTS_EX;
5001;PAPELERA_EXP;516214;;11009493;CALLE DE JUAN DE VERA N.8;CALLE DE JUAN DE VERA,8;419200;CALLE;DE;JUAN DE VERA;N;8;25;DELICIAS;2;ARGANZUELA;441209,1465;4471961,174;-3.69276;40.39618;21/02/2011;50_LTS_EX;
5001;PAPELERA_EXP;492483;;11009769;CALLE DE CACERES N.16;CALLE DE LA BATALLA DEL SALADO,39;122700;CALLE;DE;CACERES;N;16;25;DELICIAS;2;ARGANZUELA;440909,2816;4472249,926;-3.69632;40.39876;23/06/2010;50_LTS_EX;
5001;PAPELERA_EXP;517671;;31000706;CALLE DE LA CIRCONITA N.1;CALLE DE LA CIRCONITA,1;2731;CALLE;DE LA;CIRCONITA;N;1;25;DELICIAS;2;ARGANZUELA;441333,1831;4471651,607;-3.69127;40.3934;25/02/2011;50_LTS_EX;
5001;PAPELERA_EXP;514776;;31038201;CALLE DE LA ESTRELLA DENEBOLA N.1;CALLE DE LA ESTRELLA DENEBOLA,3;31000179;CALLE;DE LA;ESTRELLA DENEBOLA;N;1;25;DELICIAS;2;ARGANZUELA;442024,2383;4471675,097;-3.68313;40.39366;24/01/2011;50_LTS_EX;
5001;PAPELERA_EXP;516287;;31014552;CALLE DE LAS NEBULOSAS N.11;CALLE DE LAS NEBULOSAS,11;31000028;CALLE;DE LAS;NEBULOSAS;N;11;25;DELICIAS;2;ARGANZUELA;441773,9793;4471909,037;-3.6861;40.39575;21/02/2011;50_LTS_EX;
5001;PAPELERA_EXP;516273;;31044612;CALLE DE MENDEZ ALVARO N.44;CALLE DE MENDEZ ALVARO,44;501700;CALLE;DE;MENDEZ ALVARO;N;44;25;DELICIAS;2;ARGANZUELA;441984,141;4472197,134;-3.68365;40.39836;21/02/2011;50_LTS_EX;
5001;PAPELERA_EXP;516263;;20155411;CALLE DE RAMIREZ DE PRADO N.2;CALLE DE RAMIREZ DE PRADO,2;628200;CALLE;DE;RAMIREZ DE PRADO;N;2;25;DELICIAS;2;ARGANZUELA;441475,8227;4472310,978;-3.68965;40.39935;21/02/2011;50_LTS_EX;
5001;PAPELERA_EXP;516265;;20059485;CALLE DE JUAN DE MARIANA N.2;CALLE DE RAMIREZ DE PRADO,7B;414800;CALLE;DE;JUAN DE MARIANA;N;2;25;DELICIAS;2;ARGANZUELA;441700,6794;4472305,897;-3.687;40.39932;21/02/2011;50_LTS_EX;
5001;PAPELERA_EXP;492293;;20100962;CALLE DE TOMAS BRETON N.47;CALLE DE TOMAS BRETON,47E;744300;CALLE;DE;TOMAS BRETON;N;47;25;DELICIAS;2;ARGANZUELA;441226,4311;4472217,463;-3.69258;40.39849;23/06/2010;50_LTS_EX;
5001;PAPELERA_EXP;489145;;31006497;CALLE DE VILLA DEL PRADO N.2;CALLE DE VILLA DEL PRADO,2;31000178;CALLE;DE;VILLA DEL PRADO;N;2;25;DELICIAS;2;ARGANZUELA;441710,9457;4472425,704;-3.68689;40.4004;15/06/2010;50_LTS_EX;
5001;PAPELERA_EXP;514756;;11009488;CALLE DEL COBRE N.4;CALLE DEL COBRE,4;173600;CALLE;DEL;COBRE;N;4;25;DELICIAS;2;ARGANZUELA;441481,4089;4471721,493;-3.68953;40.39404;24/01/2011;50_LTS_EX;
5001;PAPELERA_EXP;492194;;11009850;CALLE DEL FERROCARRIL N.27;CALLE DEL FERROCARRIL,27;296000;CALLE;DEL;FERROCARRIL;N;27;25;DELICIAS;2;ARGANZUELA;440858,4348;4472474,559;-3.69694;40.40078;23/06/2010;50_LTS_EX;
5001;PAPELERA_EXP;492207;;20007984;CALLE DEL FERROCARRIL N.9;CALLE DEL FERROCARRIL,9;296000;CALLE;DEL;FERROCARRIL;N;9;25;DELICIAS;2;ARGANZUELA;441011,1122;4472464,476;-3.69514;40.4007;23/06/2010;50_LTS_EX;
5001;PAPELERA_EXP;516250;;31042045;CALLE DE RAMIREZ DE PRADO N.1;CALLE DEL GENERAL LACY,58;628200;CALLE;DE;RAMIREZ DE PRADO;N;1;25;DELICIAS;2;ARGANZUELA;441344,8257;4472380,825;-3.6912;40.39997;21/02/2011;50_LTS_EX;
5001;PAPELERA_EXP;516277;;31017167;CALLE DEL ORIANA N.10;CALLE DEL ORIANA,10;31000034;CALLE;DEL;ORIANA;N;10;25;DELICIAS;2;ARGANZUELA;442163,5906;4471916,014;-3.68151;40.39584;21/02/2011;50_LTS_EX;
5001;PAPELERA_EXP;516279;;31014546;CALLE DEL ORIANA N.4;CALLE DEL ORIANA,6;31000034;CALLE;DEL;ORIANA;N;4;25;DELICIAS;2;ARGANZUELA;441957,9232;4472007,152;-3.683942;40.396647;21/02/2011;50_LTS_EX;
5001;PAPELERA_EXP;516210;;31041801;CALLE DEL PARROCO EUSEBIO CUENCA N.13;CALLE DEL PARROCO EUSEBIO CUENCA,38;2309;CALLE;DEL;PARROCO EUSEBIO CUENCA;N;13;25;DELICIAS;2;ARGANZUELA;441496,8054;4471954,485;-3.68937;40.39614;21/02/2011;50_LTS_EX;
5001;PAPELERA_EXP;516209;;20144436;CALLE DEL CAOLIN N.9;CALLE DEL PARROCO EUSEBIO CUENCA,54;2312;CALLE;DEL;CAOLIN;N;9;25;DELICIAS;2;ARGANZUELA;441602,5349;4471799,363;-3.68811;40.39475;21/02/2011;50_LTS_EX;
5001;PAPELERA_EXP;524552;;20103663;CALLE DEL PARROCO EUSEBIO CUENCA N.62;CALLE DEL PARROCO EUSEBIO CUENCA,64;2309;CALLE;DEL;PARROCO EUSEBIO CUENCA;N;62;25;DELICIAS;2;ARGANZUELA;441633,8001;4471672,574;-3.68773;40.39361;05/09/2012;50_LTS_EX;
5001;PAPELERA_EXP;492516;;31042080;PLAZA DE LEGAZPI N.1;PASEO DE LAS DELICIAS,145;434000;PLAZA;DE;LEGAZPI;N;1;25;DELICIAS;2;ARGANZUELA;441026,0937;4471455,314;-3.69487;40.39161;23/06/2010;50_LTS_EX;
5001;PAPELERA_EXP;516236;;11009568;PASEO DE LAS DELICIAS N.63;PASEO DE LAS DELICIAS,63A;234700;PASEO;DE LAS;DELICIAS;N;63;25;DELICIAS;2;ARGANZUELA;441111,3981;4472374,883;-3.69395;40.3999;21/02/2011;50_LTS_EX;
5001;PAPELERA_EXP;492417;;11009804;PASEO DE LAS DELICIAS N.68;PASEO DE LAS DELICIAS,68;234700;PASEO;DE LAS;DELICIAS;N;68;25;DELICIAS;2;ARGANZUELA;441084,5508;4472306,27;-3.69426;40.39928;23/06/2010;50_LTS_EX;
5001;PAPELERA_EXP;514400;;20007922;PASEO DE LAS DELICIAS N.71;PASEO DE LAS DELICIAS,71;234700;PASEO;DE LAS;DELICIAS;N;71;25;DELICIAS;2;ARGANZUELA;441083,6996;4472089,815;-3.69425;40.39733;05/01/2011;50_LTS_EX;
5001;PAPELERA_EXP;516339;;11009659;PASEO DE LAS DELICIAS N.87;PASEO DE LAS DELICIAS,87;234700;PASEO;DE LAS;DELICIAS;N;87;25;DELICIAS;2;ARGANZUELA;441071,5862;4471952,263;-3.69438;40.39609;21/02/2011;50_LTS_EX;
5001;PAPELERA_EXP;514772;;20007934;PLAZA DE LA BEATA MARIA ANA DE JESUS N.15;PLAZA DE LA BEATA MARIA ANA DE JESUS,15;97600;PLAZA;DE LA;BEATA MARIA ANA DE JESUS;N;15;25;DELICIAS;2;ARGANZUELA;441034,7825;4471804,914;-3.6948;40.39476;24/01/2011;50_LTS_EX;
5001;PAPELERA_EXP;518473;;11009451;PLAZA DE LA BEATA MARIA ANA DE JESUS N.5;PLAZA DE LA BEATA MARIA ANA DE JESUS,5;97600;PLAZA;DE LA;BEATA MARIA ANA DE JESUS;N;5;25;DELICIAS;2;ARGANZUELA;441099,5986;4471736,691;-3.69403;40.39415;03/03/2011;50_LTS_EX;
5001;PAPELERA_EXP;493604;;31025829;PLAZA DE LA BEATA MARIA ANA DE JESUS N.8;PLAZA DE LA BEATA MARIA ANA DE JESUS,8;97600;PLAZA;DE LA;BEATA MARIA ANA DE JESUS;N;8;25;DELICIAS;2;ARGANZUELA;441060,167;4471687,048;-3.69449;40.3937;25/06/2010;50_LTS_EX;
5001;PAPELERA_EXP;516271;;20121884;PLAZA DEL AMANECER EN MENDEZ ALVARO N.1;PLAZA DEL AMANECER EN MENDEZ ALVARO,1;2871;PLAZA;DEL;AMANECER EN MENDEZ ALVARO;N;1;25;DELICIAS;2;ARGANZUELA;441915,1295;4472272,042;-3.68447;40.39903;21/02/2011;50_LTS_EX;
5001;PAPELERA_EXP;490240;;11010111;CALLE DE EMBAJADORES N.83;CALLE DE EMBAJADORES,83;262000;CALLE;DE;EMBAJADORES;N;83;26;PALOS DE MOGUER;2;ARGANZUELA;440611,5763;4472594,176;-3.69986;40.40184;17/06/2010;50_LTS_EX;
5001;PAPELERA_EXP;490231;;20008232;CALLE DE FRAY LUIS DE LEON N.11;CALLE DE FRAY LUIS DE LEON,11;311900;CALLE;DE;FRAY LUIS DE LEON;N;11;26;PALOS DE MOGUER;2;ARGANZUELA;440749,4452;4472858,39;-3.69826;40.40423;17/06/2010;50_LTS_EX;
5001;PAPELERA_EXP;514786;;11010114;CALLE DE FRAY LUIS DE LEON N.18;CALLE DE FRAY LUIS DE LEON,18;311900;CALLE;DE;FRAY LUIS DE LEON;N;18;26;PALOS DE MOGUER;2;ARGANZUELA;440802,7013;4472724,762;-3.69762;40.40303;24/01/2011;50_LTS_EX;
5001;PAPELERA_EXP;516241;;20008234;CALLE DE JOSE ANTONIO DE ARMONA N.2;CALLE DE JOSE ANTONIO DE ARMONA,2;398400;CALLE;DE;JOSE ANTONIO DE ARMONA;N;2;26;PALOS DE MOGUER;2;ARGANZUELA;440787,6068;4473070,111;-3.69783;40.40614;21/02/2011;50_LTS_EX;
5001;PAPELERA_EXP;514787;;11010363;CALLE DE LA BATALLA DEL SALADO N.3;CALLE DE LA BATALLA DEL SALADO,3;96600;CALLE;DE LA;BATALLA DEL SALADO;N;3;26;PALOS DE MOGUER;2;ARGANZUELA;440953,2638;4472877,874;-3.69586;40.40442;24/01/2011;50_LTS_EX;
5001;PAPELERA_EXP;514782;;11010094;CALLE DE LAS CANARIAS N.17;CALLE DE LAS CANARIAS,17;132300;CALLE;DE LAS;CANARIAS;N;17;26;PALOS DE MOGUER;2;ARGANZUELA;440977,4988;4472614,599;-3.69555;40.40205;24/01/2011;50_LTS_EX;
5001;PAPELERA_EXP;465825;;11009989;CALLE DE LAS CANARIAS N.51;CALLE DE LAS CANARIAS,51;132300;CALLE;DE LAS;CANARIAS;N;51;26;PALOS DE MOGUER;2;ARGANZUELA;441506,6231;4472560,501;-3.68931;40.4016;25/05/2010;50_LTS_EX;
5001;PAPELERA_EXP;489616;;11010344;CALLE DE LAS DELICIAS N.31;CALLE DE LAS DELICIAS,33;234600;CALLE;DE LAS;DELICIAS;N;31;26;PALOS DE MOGUER;2;ARGANZUELA;441306,8139;4472837,357;-3.69169;40.40408;16/06/2010;50_LTS_EX;
5001;PAPELERA_EXP;490070;;20008272;CALLE DE MARTIN SOLER N.1;CALLE DE MARTIN SOLER,1;490300;CALLE;DE;MARTIN SOLER;N;1;26;PALOS DE MOGUER;2;ARGANZUELA;440813,4787;4472692,485;-3.69749;40.40274;16/06/2010;50_LTS_EX;
5001;PAPELERA_EXP;516255;;31031991;CALLE DE MENDEZ ALVARO N.24;CALLE DE MENDEZ ALVARO,24B;501700;CALLE;DE;MENDEZ ALVARO;N;24;26;PALOS DE MOGUER;2;ARGANZUELA;441589,7916;4472669,749;-3.68834;40.40259;21/02/2011;50_LTS_EX;
5001;PAPELERA_EXP;514784;;20008372;PASEO DE LAS DELICIAS N.24;CALLE DE MURCIA,11;234700;PASEO;DE LAS;DELICIAS;N;24;26;PALOS DE MOGUER;2;ARGANZUELA;441140,7288;4472976,306;-3.69366;40.40532;24/01/2011;50_LTS_EX;
5001;PAPELERA_EXP;511164;;20008158;CALLE DE PALOS DE LA FRONTERA N.14;CALLE DE PALOS DE LA FRONTERA,14;560600;CALLE;DE;PALOS DE LA FRONTERA;N;14;26;PALOS DE MOGUER;2;ARGANZUELA;440661,7074;4472709,225;-3.69928;40.40288;04/08/2010;50_LTS_EX;
5001;PAPELERA_EXP;489906;;20008282;CALLE DE PALOS DE LA FRONTERA N.27;CALLE DE PALOS DE LA FRONTERA,27;560600;CALLE;DE;PALOS DE LA FRONTERA;N;27;26;PALOS DE MOGUER;2;ARGANZUELA;441047,9112;4472719,501;-3.69473;40.403;16/06/2010;50_LTS_EX;
5001;PAPELERA_EXP;516144;;11010153;CALLE DE BERNARDINO OBREGON N.12;CALLE DE SEBASTIAN ELCANO,12;105300;CALLE;DE;BERNARDINO OBREGON;N;12;26;PALOS DE MOGUER;2;ARGANZUELA;440587,6003;4472888,532;-3.70017;40.40449;18/02/2011;50_LTS_EX;
5001;PAPELERA_EXP;490202;;11010234;CALLE DE SEBASTIAN ELCANO N.44;CALLE DE SEBASTIAN ELCANO,44;705600;CALLE;DE;SEBASTIAN ELCANO;N;44;26;PALOS DE MOGUER;2;ARGANZUELA;440975,2026;4472969,837;-3.69561;40.40525;16/06/2010;50_LTS_EX;
5001;PAPELERA_EXP;490276;;20008218;CALLE DE SEBASTIAN HERRERA N.1;CALLE DE SEBASTIAN HERRERA,1;705900;CALLE;DE;SEBASTIAN HERRERA;N;1;26;PALOS DE MOGUER;2;ARGANZUELA;440514,4964;4472765,895;-3.70102;40.40338;17/06/2010;50_LTS_EX;
5001;PAPELERA_EXP;489958;;20008016;CALLE DEL FERROCARRIL N.20;CALLE DEL FERROCARRIL,20;296000;CALLE;DEL;FERROCARRIL;N;20;26;PALOS DE MOGUER;2;ARGANZUELA;440957,0816;4472500,423;-3.69578;40.40102;16/06/2010;50_LTS_EX;
5001;PAPELERA_EXP;516246;;11009877;CALLE DEL FERROCARRIL N.38;CALLE DEL FERROCARRIL,38;296000;CALLE;DEL;FERROCARRIL;N;38;26;PALOS DE MOGUER;2;ARGANZUELA;440780,6531;4472511,804;-3.69786;40.40111;21/02/2011;50_LTS_EX;
5001;PAPELERA_EXP;528103;;20008002;CALLE DEL FERROCARRIL N.44;CALLE DEL FERROCARRIL,44;296000;CALLE;DEL;FERROCARRIL;N;44;26;PALOS DE MOGUER;2;ARGANZUELA;440718,6796;4472508,964;-3.69859;40.40108;17/08/2016;50_LTS_EX;
5001;PAPELERA_EXP;488224;;11010339;CALLE DE MURCIA N.32;CALLE DEL GENERAL LACY,2;526300;CALLE;DE;MURCIA;N;32;26;PALOS DE MOGUER;2;ARGANZUELA;441379,7565;4472941,132;-3.69084;40.40502;14/06/2010;50_LTS_EX;
5001;PAPELERA_EXP;516253;;20008322;CALLE DEL GENERAL LACY N.26;CALLE DEL GENERAL LACY,26;330400;CALLE;DEL;GENERAL LACY;N;26;26;PALOS DE MOGUER;2;ARGANZUELA;441375,467;4472718,044;-3.69087;40.40301;21/02/2011;50_LTS_EX;
